{"spots_count": 637, "spotlist": [{"id": "L001", "class_field": "Place", "name": "가단(可丹)", "korname": "가단", "chinname": "可丹", "alias": null, "kind": "단위구역", "shape": "face", "latitude": "34.435851", "longitude": "126.264296", "address": "전남 진도군 의신면 가단길 44 ", "uri": "http://jiamdiary.info/iri/jad#L001"}, {"id": "L004", "class_field": "Place", "name": "가리역(加里驛)", "korname": "가리역", "chinname": "加里驛", "alias": null, "kind": "건축물", "shape": "dot", "latitude": "35.132284", "longitude": "126.493224", "address": "전남 함평군 신광면 가덕리 159-10", "uri": "http://jiamdiary.info/iri/jad#L004"}, {"id": "L005", "class_field": "Place", "name": "가리포(加里浦)", "korname": "가리포", "chinname": "加里浦", "alias": null, "kind": "단위구역", "shape": "face", "latitude": "34.312872", "longitude": "126.754915", "address": "전남 완도군 완도읍 주도길 3-1", "uri": "http://jiamdiary.info/iri/jad#L005"}, {"id": "L007", "class_field": "Place", "name": "가좌리(可佐里)", "korname": "가좌리", "chinname": "可佐里", "alias": null, "kind": "단위구역", "shape": "face", "latitude": "34.499142", "longitude": "126.479181", "address": "전남 해남군 화산면 고천암로 410", "uri": "http://jiamdiary.info/iri/jad#L007"}, {"id": "L008", "class_field": "Place", "name": "가지도(可枝島)", "korname": "가지도", "chinname": "可枝島", "alias": "可枝窟", "kind": "도서", "shape": "face", "latitude": "34.745525", "longitude": "126.374728", "address": "전남 영암군 삼호읍 용당리 2173", "uri": "http://jiamdiary.info/iri/jad#L008"}, {"id": "L009", "class_field": "Place", "name": "가치(可峙)", "korname": "가치", "chinname": "可峙", "alias": "가성마을", "kind": "단위구역", "shape": "face", "latitude": "34.531979", "longitude": "126.644315", "address": "전남 해남군 옥천면 가성길 64", "uri": "http://jiamdiary.info/iri/jad#L009"}, {"id": "L010", "class_field": "Place", "name": "가학치(駕鶴峙)", "korname": "가학치", "chinname": "駕鶴峙", "alias": "加羅峙", "kind": "도로", "shape": "line", "latitude": "34.681397", "longitude": "126.618488", "address": "전남 영암군 학산면 학계리 산 94-1", "uri": "http://jiamdiary.info/iri/jad#L010"}, {"id": "L011", "class_field": "Place", "name": "가허루(駕虛樓)", "korname": "가허루", "chinname": "駕虛樓", "alias": null, "kind": "건축물", "shape": "dot", "latitude": "34.476648", "longitude": "126.616364", "address": "전남 해남군 삼산면 대흥사길 400", "uri": "http://jiamdiary.info/iri/jad#L011"}, {"id": "L012", "class_field": "Place", "name": "간두(幹頭)", "korname": "간두", "chinname": "幹頭", "alias": null, "kind": "단위구역", "shape": "face", "latitude": "34.432035", "longitude": "126.680418", "address": "전남 해남군 북일면 금당리 산 78", "uri": "http://jiamdiary.info/iri/jad#L012"}, {"id": "L013", "class_field": "Place", "name": "간두리(艮頭里)", "korname": "간두리", "chinname": "艮頭里", "alias": null, "kind": "단위구역", "shape": "face", "latitude": "34.679848", "longitude": "126.431881", "address": "전남 해남군 산이면 덕송길 31", "uri": "http://jiamdiary.info/iri/jad#L013"}, {"id": "L014", "class_field": "Place", "name": "갈두(葛頭)", "korname": "갈두", "chinname": "葛頭", "alias": null, "kind": "단위구역", "shape": "face", "latitude": "34.298977", "longitude": "126.527883", "address": "전남 해남군 송지면 땅끝마을길 55", "uri": "http://jiamdiary.info/iri/jad#L014"}, {"id": "L015", "class_field": "Place", "name": "갈산(葛山)", "korname": "갈산", "chinname": "葛山", "alias": null, "kind": "단위구역", "shape": "face", "latitude": "34.661151", "longitude": "126.674385", "address": "전남 해남군 계곡면 법곡리 198", "uri": "http://jiamdiary.info/iri/jad#L015"}, {"id": "L016", "class_field": "Place", "name": "갈원(葛院)", "korname": "갈원", "chinname": "葛院", "alias": null, "kind": "건축물", "shape": "dot", "latitude": "37.031926", "longitude": "127.100105", "address": "경기 평택시 원칠원길 59", "uri": "http://jiamdiary.info/iri/jad#L016"}, {"id": "L017", "class_field": "Place", "name": "갈치(乫峙)", "korname": "갈치", "chinname": "乫峙", "alias": "駕峙", "kind": "도로", "shape": "line", "latitude": "34.541769", "longitude": "126.631709", "address": "전남 해남군 삼산면 상가리 산 59", "uri": "http://jiamdiary.info/iri/jad#L017"}, {"id": "L019", "class_field": "Place", "name": "감치(坎峙)", "korname": "감치", "chinname": "坎峙", "alias": null, "kind": "도로", "shape": "line", "latitude": "34.985002", "longitude": "128.255184", "address": "경남 고성군 고성읍 이당리 산 301-1", "uri": "http://jiamdiary.info/iri/jad#L019"}, {"id": "L020", "class_field": "Place", "name": "강릉(江陵)", "korname": "강릉", "chinname": "江陵", "alias": null, "kind": "단위구역", "shape": "face", "latitude": "37.752516", "longitude": "128.892286", "address": "강원 강릉시 성내동 27-1", "uri": "http://jiamdiary.info/iri/jad#L020"}, {"id": "L021", "class_field": "Place", "name": "강산(糠山)", "korname": "강산", "chinname": "糠山", "alias": null, "kind": "단위구역", "shape": "face", "latitude": "34.667153", "longitude": "126.671224", "address": "전남 해남군 계곡면 강절리 651-2", "uri": "http://jiamdiary.info/iri/jad#L021"}, {"id": "L022", "class_field": "Place", "name": "강성(江城)", "korname": "강성", "chinname": "江城", "alias": null, "kind": "단위구역", "shape": "face", "latitude": "34.593826", "longitude": "126.678411", "address": "전남 강진군 도암면 강성길 10", "uri": "http://jiamdiary.info/iri/jad#L022"}, {"id": "L023", "class_field": "Place", "name": "강성천(江城川)", "korname": "강성천", "chinname": "江城川", "alias": null, "kind": "하천", "shape": "line", "latitude": "34.594967", "longitude": "126.679036", "address": "전남 강진군 도암면 강성길 10", "uri": "http://jiamdiary.info/iri/jad#L023"}, {"id": "L024", "class_field": "Place", "name": "강정점(江亭店)", "korname": "강정점", "chinname": "江亭店", "alias": null, "kind": "단위구역", "shape": "face", "latitude": "34.496863", "longitude": "126.623621", "address": "전남 해남군 삼산면 대흥사길 88-11", "uri": "http://jiamdiary.info/iri/jad#L024"}, {"id": "L025", "class_field": "Place", "name": "강진(康津)", "korname": "강진", "chinname": "康津", "alias": "金陵", "kind": "단위구역", "shape": "face", "latitude": "34.642088", "longitude": "126.767365", "address": "전남 강진군 강진읍 탐진로 111", "uri": "http://jiamdiary.info/iri/jad#L025"}, {"id": "L026", "class_field": "Place", "name": "강진 동문(康津 東門)", "korname": "강진 동문", "chinname": "康津 東門", "alias": null, "kind": "건축물", "shape": "dot", "latitude": "34.643627", "longitude": "126.769291", "address": "전남 강진군 강진읍 동성리 428-1", "uri": "http://jiamdiary.info/iri/jad#L026"}, {"id": "L027", "class_field": "Place", "name": "개령(開寧)", "korname": "개령", "chinname": "開寧", "alias": null, "kind": "단위구역", "shape": "face", "latitude": "36.167743", "longitude": "128.186166", "address": "경북 김천시 개령면 서부3길 107", "uri": "http://jiamdiary.info/iri/jad#L027"}, {"id": "L028", "class_field": "Place", "name": "거제도(巨濟島)", "korname": "거제도", "chinname": "巨濟島", "alias": "巨濟", "kind": "단위구역", "shape": "face", "latitude": "34.851122", "longitude": "128.591112", "address": "경남 거제시 거제면 동상리 546-5", "uri": "http://jiamdiary.info/iri/jad#L028"}, {"id": "L029", "class_field": "Place", "name": "거제 둔덕리(巨濟 屯德里)", "korname": "거제 둔덕리", "chinname": "巨濟 屯德里", "alias": null, "kind": "단위구역", "shape": "face", "latitude": "34.857594", "longitude": "128.510216", "address": "경남 거제시 둔덕면 거림리 293", "uri": "http://jiamdiary.info/iri/jad#L029"}, {"id": "L031", "class_field": "Place", "name": "건교치(乾橋峙)", "korname": "건교치", "chinname": "乾橋峙", "alias": "건드리재", "kind": "도로", "shape": "line", "latitude": "34.525049", "longitude": "126.652273", "address": "전남 해남군 옥천면 용동리 602-3", "uri": "http://jiamdiary.info/iri/jad#L031"}, {"id": "L032", "class_field": "Place", "name": "건원릉(健元陵)", "korname": "건원릉", "chinname": "健元陵", "alias": null, "kind": "건축물", "shape": "dot", "latitude": "37.625637", "longitude": "127.131336", "address": "경기 구리시 인창동 66-10", "uri": "http://jiamdiary.info/iri/jad#L032"}, {"id": "L034", "class_field": "Place", "name": "검교(黔橋)", "korname": "검교", "chinname": "黔橋", "alias": "檢橋,黔兒橋", "kind": "단위구역", "shape": "face", "latitude": "34.590311", "longitude": "126.541566", "address": "전남 해남군 마산면 명량로 2603", "uri": "http://jiamdiary.info/iri/jad#L034"}, {"id": "L035", "class_field": "Place", "name": "격포(格浦)", "korname": "격포", "chinname": "格浦", "alias": null, "kind": "단위구역", "shape": "face", "latitude": "35.619458", "longitude": "126.474388", "address": "전북 부안군 변산면 격상길 4-4", "uri": "http://jiamdiary.info/iri/jad#L035"}, {"id": "L036", "class_field": "Place", "name": "견내나루(見乃渡)", "korname": "견내나루", "chinname": "見乃渡", "alias": null, "kind": "건축물", "shape": "dot", "latitude": "34.889711", "longitude": "128.474992", "address": "경남 통영시 용남면 견유1길 195", "uri": "http://jiamdiary.info/iri/jad#L036"}, {"id": "L037", "class_field": "Place", "name": "결성(結城)", "korname": "결성", "chinname": "結城", "alias": null, "kind": "단위구역", "shape": "face", "latitude": "36.523779", "longitude": "126.544901", "address": "충남 홍성군 결성면 읍내리 279-3", "uri": "http://jiamdiary.info/iri/jad#L037"}, {"id": "L038", "class_field": "Place", "name": "경성(鏡城)", "korname": "경성", "chinname": "鏡城", "alias": null, "kind": "단위구역", "shape": "face", "latitude": "41.582491", "longitude": "129.589555", "address": "함경북도 경성군", "uri": "http://jiamdiary.info/iri/jad#L038"}, {"id": "L039", "class_field": "Place", "name": "경안(慶安)", "korname": "경안", "chinname": "慶安", "alias": null, "kind": "단위구역", "shape": "face", "latitude": "37.410792", "longitude": "127.257306", "address": "경기 광주시 중앙로 125", "uri": "http://jiamdiary.info/iri/jad#L039"}, {"id": "L040", "class_field": "Place", "name": "경천(敬天)", "korname": "경천", "chinname": "敬天", "alias": null, "kind": "단위구역", "shape": "face", "latitude": "36.320729", "longitude": "127.154218", "address": "충남 공주시 계룡면 성밑길 52", "uri": "http://jiamdiary.info/iri/jad#L040"}, {"id": "L042", "class_field": "Place", "name": "경희궁(慶熙宮)", "korname": "경희궁", "chinname": "慶熙宮", "alias": "新門內大闕", "kind": "건축물", "shape": "dot", "latitude": "37.570042", "longitude": "126.968735", "address": "서울 종로구 새문안로 45", "uri": "http://jiamdiary.info/iri/jad#L042"}, {"id": "L043", "class_field": "Place", "name": "고금도(古今島)", "korname": "고금도", "chinname": "古今島", "alias": null, "kind": "도서", "shape": "face", "latitude": "34.394919", "longitude": "126.804321", "address": "전남 완도군 고금면 농상도남길 24", "uri": "http://jiamdiary.info/iri/jad#L043"}, {"id": "L044", "class_field": "Place", "name": "고금도 건천리(古今島 乾川里)", "korname": "고금도 건천리", "chinname": "古今島 乾川里", "alias": null, "kind": "단위구역", "shape": "face", "latitude": "34.410737", "longitude": "126.801587", "address": "전남 완도군 고금면 청용1길 48", "uri": "http://jiamdiary.info/iri/jad#L044"}, {"id": "L045", "class_field": "Place", "name": "고다산(高多山)", "korname": "고다산", "chinname": "高多山", "alias": null, "kind": "산야", "shape": "face", "latitude": "34.443141", "longitude": "126.551824", "address": "전남 해남군 현산면 읍호리 성매산 일대", "uri": "http://jiamdiary.info/iri/jad#L045"}, {"id": "L047", "class_field": "Place", "name": "고막원(古幕院)", "korname": "고막원", "chinname": "古幕院", "alias": null, "kind": "건축물", "shape": "dot", "latitude": "35.033518", "longitude": "126.592446", "address": "전남 함평군 학교면 고막천로 643-16", "uri": "http://jiamdiary.info/iri/jad#L047"}, {"id": "L049", "class_field": "Place", "name": "고부(古阜)", "korname": "고부", "chinname": "古阜", "alias": null, "kind": "단위구역", "shape": "face", "latitude": "35.618485", "longitude": "126.771771", "address": "전북 정읍시 고부면 영주로 542-12", "uri": "http://jiamdiary.info/iri/jad#L049"}, {"id": "L050", "class_field": "Place", "name": "고성(固城)", "korname": "고성", "chinname": "固城", "alias": null, "kind": "단위구역", "shape": "face", "latitude": "34.973125", "longitude": "128.322297", "address": "경남 고성군 고성읍 성내로 130", "uri": "http://jiamdiary.info/iri/jad#L050"}, {"id": "L051", "class_field": "Place", "name": "고성향교(固城鄕校)", "korname": "고성향교", "chinname": "固城鄕校", "alias": null, "kind": "건축물", "shape": "dot", "latitude": "34.976143", "longitude": "128.309071", "address": "경남 고성군 고성읍 교사3길 41", "uri": "http://jiamdiary.info/iri/jad#L051"}, {"id": "L052", "class_field": "Place", "name": "고읍촌(古邑村)", "korname": "고읍촌", "chinname": "古邑村", "alias": "秀陽里", "kind": "단위구역", "shape": "face", "latitude": "34.690385", "longitude": "126.738694", "address": "전남 강진군 성전면 동령길 24", "uri": "http://jiamdiary.info/iri/jad#L052"}, {"id": "L054", "class_field": "Place", "name": "고장성(古長城)", "korname": "고장성", "chinname": "古長城", "alias": null, "kind": "단위구역", "shape": "face", "latitude": "35.384479", "longitude": "126.793961", "address": "전남 장성군 북일면 신흥로 574", "uri": "http://jiamdiary.info/iri/jad#L054"}, {"id": "L055", "class_field": "Place", "name": "고창(高敞)", "korname": "고창", "chinname": "高敞", "alias": null, "kind": "단위구역", "shape": "face", "latitude": "35.429891", "longitude": "126.704234", "address": "전북 고창군 고창읍 모양성로 1", "uri": "http://jiamdiary.info/iri/jad#L055"}, {"id": "L056", "class_field": "Place", "name": "고통영(古統營)", "korname": "고통영", "chinname": "古統營", "alias": null, "kind": "단위구역", "shape": "face", "latitude": "34.782041", "longitude": "128.572165", "address": "경남 거제시 동부면 가배리 산17-1", "uri": "http://jiamdiary.info/iri/jad#L056"}, {"id": "L057", "class_field": "Place", "name": "거제 고현(巨濟 古縣)", "korname": "거제 고현", "chinname": "巨濟 古縣", "alias": null, "kind": "단위구역", "shape": "face", "latitude": "34.880906", "longitude": "128.621772", "address": "경남 거제시 계룡로 125", "uri": "http://jiamdiary.info/iri/jad#L057"}, {"id": "L058", "class_field": "Place", "name": "고현리(古縣里)", "korname": "고현리", "chinname": "古縣里", "alias": "本海南", "kind": "단위구역", "shape": "face", "latitude": "34.465707", "longitude": "126.556351", "address": "전남 해남군 현산면 고현길 41", "uri": "http://jiamdiary.info/iri/jad#L058"}, {"id": "L059", "class_field": "Place", "name": "곡성(谷城)", "korname": "곡성", "chinname": "谷城", "alias": null, "kind": "단위구역", "shape": "face", "latitude": "35.281836", "longitude": "127.292077", "address": "전남 곡성군 곡성읍 군청로 50", "uri": "http://jiamdiary.info/iri/jad#L059"}, {"id": "L060", "class_field": "Place", "name": "곤양(昆陽)", "korname": "곤양", "chinname": "昆陽", "alias": null, "kind": "단위구역", "shape": "face", "latitude": "35.057532", "longitude": "127.959649", "address": "경남 사천시 곤양면 성내공원길 11", "uri": "http://jiamdiary.info/iri/jad#L060"}, {"id": "L061", "class_field": "Place", "name": "곤일도(昆一道)", "korname": "곤일도", "chinname": "昆一道", "alias": null, "kind": "단위구역", "shape": "face", "latitude": "34.699199", "longitude": "126.571697", "address": "전남 영암군 미암면 미중로 39", "uri": "http://jiamdiary.info/iri/jad#L061"}, {"id": "L062", "class_field": "Place", "name": "골약면(骨若面)", "korname": "골약면", "chinname": "骨若面", "alias": null, "kind": "단위구역", "shape": "face", "latitude": "34.932121", "longitude": "127.685372", "address": "전남 광양시 지동길 139", "uri": "http://jiamdiary.info/iri/jad#L062"}, {"id": "L063", "class_field": "Place", "name": "공소동(孔巢洞)", "korname": "공소동", "chinname": "孔巢洞", "alias": null, "kind": "단위구역", "shape": "face", "latitude": "34.483347", "longitude": "126.550841", "address": "전남 해남군 현산면 고산로 1455", "uri": "http://jiamdiary.info/iri/jad#L063"}, {"id": "L064", "class_field": "Place", "name": "공주(公州)", "korname": "공주", "chinname": "公州", "alias": null, "kind": "단위구역", "shape": "face", "latitude": "36.465671", "longitude": "127.109533", "address": "충남 공주시 관광단지길 30-8", "uri": "http://jiamdiary.info/iri/jad#L064"}, {"id": "L065", "class_field": "Place", "name": "과천현(果川縣)", "korname": "과천현", "chinname": "果川縣", "alias": null, "kind": "단위구역", "shape": "face", "latitude": "37.433093", "longitude": "126.993449", "address": "경기 과천시 관문로 136", "uri": "http://jiamdiary.info/iri/jad#L065"}, {"id": "L066", "class_field": "Place", "name": "관두리(館頭里)", "korname": "관두리", "chinname": "館頭里", "alias": null, "kind": "단위구역", "shape": "face", "latitude": "34.478602", "longitude": "126.478049", "address": "전남 해남군 화산면 관동리 571", "uri": "http://jiamdiary.info/iri/jad#L066"}, {"id": "L067", "class_field": "Place", "name": "관두산(館頭山)", "korname": "관두산", "chinname": "館頭山", "alias": null, "kind": "산야", "shape": "face", "latitude": "34.474442", "longitude": "126.465797", "address": "전남 해남군 화산면 관동리 산 79-1", "uri": "http://jiamdiary.info/iri/jad#L067"}, {"id": "L068", "class_field": "Place", "name": "관왕묘(關王廟)", "korname": "관왕묘", "chinname": "關王廟", "alias": null, "kind": "건축물", "shape": "dot", "latitude": "34.400547", "longitude": "126.859634", "address": "전남 완도군 고금면 충무사길 86-31", "uri": "http://jiamdiary.info/iri/jad#L068"}, {"id": "L071", "class_field": "Place", "name": "광양(光陽)", "korname": "광양", "chinname": "光陽", "alias": null, "kind": "단위구역", "shape": "face", "latitude": "34.976301", "longitude": "127.585111", "address": "전남 광양시 광양읍 매일시장길 20", "uri": "http://jiamdiary.info/iri/jad#L071"}, {"id": "L072", "class_field": "Place", "name": "광양 동문(光陽東門)", "korname": "광양 동문", "chinname": "光陽東門", "alias": null, "kind": "건축물", "shape": "dot", "latitude": "34.975776", "longitude": "127.587285", "address": "전남 광양시 광양읍 읍성길 159", "uri": "http://jiamdiary.info/iri/jad#L072"}, {"id": "L073", "class_field": "Place", "name": "광주(光州)", "korname": "광주", "chinname": "光州", "alias": null, "kind": "단위구역", "shape": "face", "latitude": "35.147513", "longitude": "126.919454", "address": "광주 동구 금남로1가 12-7", "uri": "http://jiamdiary.info/iri/jad#L073"}, {"id": "L074", "class_field": "Place", "name": "광주(廣州)", "korname": "광주", "chinname": "廣州", "alias": null, "kind": "단위구역", "shape": "face", "latitude": "37.479371", "longitude": "127.181293", "address": "경기 광주시 남한산성면 남한산성로 784-29 ", "uri": "http://jiamdiary.info/iri/jad#L074"}, {"id": "L075", "class_field": "Place", "name": "광탄(廣灘)", "korname": "광탄", "chinname": "廣灘", "alias": "영산강", "kind": "하천", "shape": "face", "latitude": "35.029836", "longitude": "126.737357", "address": "전남 나주시 금천면 원곡리 995", "uri": "http://jiamdiary.info/iri/jad#L075"}, {"id": "L076", "class_field": "Place", "name": "광호산리(廣虎山里)", "korname": "광호산리", "chinname": "廣虎山里", "alias": "廣虎村", "kind": "단위구역", "shape": "face", "latitude": "35.162594", "longitude": "126.717304", "address": "광주 광산구 내동송동길 9-54", "uri": "http://jiamdiary.info/iri/jad#L076"}, {"id": "L078", "class_field": "Place", "name": "괴산(槐山)", "korname": "괴산", "chinname": "槐山", "alias": null, "kind": "단위구역", "shape": "face", "latitude": "36.810306", "longitude": "127.792401", "address": "충북 괴산군 괴산읍 읍내로2길 65-20", "uri": "http://jiamdiary.info/iri/jad#L078"}, {"id": "L080", "class_field": "Place", "name": "교진(橋津)", "korname": "교진", "chinname": "橋津", "alias": "橋浦", "kind": "단위구역", "shape": "face", "latitude": "34.626616", "longitude": "126.760462", "address": "전남 강진군 강진읍 도원길 28", "uri": "http://jiamdiary.info/iri/jad#L080"}, {"id": "L081", "class_field": "Place", "name": "구로촌(舊路村)", "korname": "구로촌", "chinname": "舊路村", "alias": null, "kind": "단위구역", "shape": "face", "latitude": "34.595754", "longitude": "126.785634", "address": "전남 강진군 칠량면 구로길 80", "uri": "http://jiamdiary.info/iri/jad#L081"}, {"id": "L082", "class_field": "Place", "name": "구림(鳩林)", "korname": "구림", "chinname": "鳩林", "alias": null, "kind": "단위구역", "shape": "face", "latitude": "34.760669", "longitude": "126.620363", "address": "전남 영암군 군서면 서호정길 5", "uri": "http://jiamdiary.info/iri/jad#L082"}, {"id": "L083", "class_field": "Place", "name": "구유개(槽浦)", "korname": "구유개", "chinname": "槽浦", "alias": "구세들", "kind": "단위구역", "shape": "face", "latitude": "34.404393", "longitude": "126.852598", "address": "전남 완도군 고금면 세동리 1321-10", "uri": "http://jiamdiary.info/iri/jad#L083"}, {"id": "L084", "class_field": "Place", "name": "구치(鳩峙)", "korname": "구치", "chinname": "鳩峙", "alias": null, "kind": "도로", "shape": "line", "latitude": "34.503894", "longitude": "126.593854", "address": "전남 해남군 삼산면 구림리 산 34-4", "uri": "http://jiamdiary.info/iri/jad#L084"}, {"id": "L086", "class_field": "Place", "name": "구현(狗峴)", "korname": "구현", "chinname": "狗峴", "alias": "개현", "kind": "단위구역", "shape": "face", "latitude": "34.379448", "longitude": "126.544606", "address": "전남 해남군 송지면 개현길 30", "uri": "http://jiamdiary.info/iri/jad#L086"}, {"id": "L087", "class_field": "Place", "name": "구화역(仇火驛)", "korname": "구화역", "chinname": "仇火驛", "alias": null, "kind": "건축물", "shape": "dot", "latitude": "34.899788", "longitude": "128.406925", "address": "경남 통영시 광도면 노산길 115", "uri": "http://jiamdiary.info/iri/jad#L087"}, {"id": "L088", "class_field": "Place", "name": "군입리(軍入里)", "korname": "군입리", "chinname": "軍入里", "alias": null, "kind": "단위구역", "shape": "face", "latitude": "34.714811", "longitude": "126.758517", "address": "전남 강진군 작천면 군자2길 42", "uri": "http://jiamdiary.info/iri/jad#L088"}, {"id": "L090", "class_field": "Place", "name": "굴포(窟浦)", "korname": "굴포", "chinname": "窟浦", "alias": "窟庄", "kind": "단위구역", "shape": "face", "latitude": "34.366753", "longitude": "126.200169", "address": "전남 진도군 임회면 굴포길 38", "uri": "http://jiamdiary.info/iri/jad#L090"}, {"id": "L091", "class_field": "Place", "name": "굴치(屈峙)", "korname": "굴치", "chinname": "屈峙", "alias": null, "kind": "도로", "shape": "line", "latitude": "34.914466", "longitude": "127.369583", "address": "전남 순천시 낙안면 교촌리 산 4-17", "uri": "http://jiamdiary.info/iri/jad#L091"}, {"id": "L093", "class_field": "Place", "name": "궁원(弓院)", "korname": "궁원", "chinname": "弓院", "alias": null, "kind": "단위구역", "shape": "face", "latitude": "36.582187", "longitude": "127.117371", "address": "충남 공주시 정안면 활원길 25", "uri": "http://jiamdiary.info/iri/jad#L093"}, {"id": "L094", "class_field": "Place", "name": "귀라리(貴羅里)", "korname": "귀라리", "chinname": "貴羅里", "alias": null, "kind": "단위구역", "shape": "face", "latitude": "34.581491", "longitude": "126.714697", "address": "전남 강진군 도암면 귀라1길 29", "uri": "http://jiamdiary.info/iri/jad#L094"}, {"id": "L099", "class_field": "Place", "name": "금구(金溝)", "korname": "금구", "chinname": "金溝", "alias": null, "kind": "단위구역", "shape": "face", "latitude": "35.774385", "longitude": "127.011307", "address": "전북 김제시 금구면 금구로 44", "uri": "http://jiamdiary.info/iri/jad#L099"}, {"id": "L100", "class_field": "Place", "name": "금당동(金堂洞)", "korname": "금당동", "chinname": "金堂洞", "alias": null, "kind": "단위구역", "shape": "face", "latitude": "34.446302", "longitude": "126.671108", "address": "전남 해남군 북일면 금당리 390-1", "uri": "http://jiamdiary.info/iri/jad#L100"}, {"id": "L101", "class_field": "Place", "name": "금사리고개(金沙里古介)", "korname": "금사리고개", "chinname": "金沙里古介", "alias": null, "kind": "도로", "shape": "line", "latitude": "34.891141", "longitude": "128.584884", "address": "경남 거제시 사등면 사곡리 산 103-17", "uri": "http://jiamdiary.info/iri/jad#L101"}, {"id": "L103", "class_field": "Place", "name": "금성봉(錦城峰)", "korname": "금성봉", "chinname": "錦城峰", "alias": "錦城山", "kind": "산야", "shape": "face", "latitude": "34.510126", "longitude": "126.509841", "address": "전남 해남군 화산면 연정리 산 58-2", "uri": "http://jiamdiary.info/iri/jad#L103"}, {"id": "L104", "class_field": "Place", "name": "금쇄동(金鎖洞)", "korname": "금쇄동", "chinname": "金鎖洞", "alias": null, "kind": "단위구역", "shape": "face", "latitude": "34.503416", "longitude": "126.567994", "address": "전남 해남군 현산면 구시리 산181", "uri": "http://jiamdiary.info/iri/jad#L104"}, {"id": "L105", "class_field": "Place", "name": "금안동(金鞍洞)", "korname": "금안동", "chinname": "金鞍洞", "alias": "金安里", "kind": "단위구역", "shape": "face", "latitude": "35.073451", "longitude": "126.699478", "address": "전남 나주시 노안면 금안1길 45", "uri": "http://jiamdiary.info/iri/jad#L105"}, {"id": "L107", "class_field": "Place", "name": "금여리(金餘里)", "korname": "금여리", "chinname": "金餘里", "alias": "金餘,金輿村,金輿", "kind": "단위구역", "shape": "face", "latitude": "34.667957", "longitude": "126.731579", "address": "전남 강진군 성전면 금당길 36-14", "uri": "http://jiamdiary.info/iri/jad#L107"}, {"id": "L110", "class_field": "Place", "name": "금천(錦川)", "korname": "금천", "chinname": "錦川", "alias": null, "kind": "단위구역", "shape": "face", "latitude": "34.643981", "longitude": "126.843371", "address": "전남 강진군 군동면 용소리 415-7", "uri": "http://jiamdiary.info/iri/jad#L110"}, {"id": "L114", "class_field": "Place", "name": "기탄(_灘)", "korname": "기탄", "chinname": "_灘", "alias": null, "kind": "하천", "shape": "line", "latitude": "37.465424", "longitude": "126.885384", "address": "서울 금천구 가산동 707", "uri": "http://jiamdiary.info/iri/jad#L114"}, {"id": "L117", "class_field": "Place", "name": "나주 북문(羅州北門)", "korname": "나주 북문", "chinname": "羅州北門", "alias": null, "kind": "건축물", "shape": "dot", "latitude": "35.038528", "longitude": "126.715953", "address": "전남 나주시 북망문길 31", "uri": "http://jiamdiary.info/iri/jad#L117"}, {"id": "L118", "class_field": "Place", "name": "나주 북창(羅州北倉)", "korname": "나주 북창", "chinname": "羅州北倉", "alias": null, "kind": "건축물", "shape": "dot", "latitude": "35.190761", "longitude": "126.747564", "address": "광주 광산구 산수동 457-1", "uri": "http://jiamdiary.info/iri/jad#L118"}, {"id": "L119", "class_field": "Place", "name": "나주(羅州)", "korname": "나주", "chinname": "羅州", "alias": "錦城", "kind": "단위구역", "shape": "face", "latitude": "35.032034", "longitude": "126.716081", "address": "전남 나주시 금성관길 13", "uri": "http://jiamdiary.info/iri/jad#L119"}, {"id": "L120", "class_field": "Place", "name": "나주 객사(羅州客舍)", "korname": "나주 객사", "chinname": "羅州客舍", "alias": "錦城館", "kind": "건축물", "shape": "dot", "latitude": "35.033358", "longitude": "126.716553", "address": "전남 나주시 금성관길 8", "uri": "http://jiamdiary.info/iri/jad#L120"}, {"id": "L123", "class_field": "Place", "name": "용흥동(龍興洞)", "korname": "용흥동", "chinname": "龍興洞", "alias": null, "kind": "단위구역", "shape": "face", "latitude": "35.067901", "longitude": "126.723302", "address": "전남 나주시 노안면 용암길 77", "uri": "http://jiamdiary.info/iri/jad#L123"}, {"id": "L125", "class_field": "Place", "name": "낙안(樂安)", "korname": "낙안", "chinname": "樂安", "alias": null, "kind": "단위구역", "shape": "face", "latitude": "34.908112", "longitude": "127.340022", "address": "전남 순천시 낙안면 서내리 89-1", "uri": "http://jiamdiary.info/iri/jad#L125"}, {"id": "L126", "class_field": "Place", "name": "남각산(南角山)", "korname": "남각산", "chinname": "南角山", "alias": null, "kind": "산야", "shape": "face", "latitude": "34.570204", "longitude": "126.563161", "address": "전남 해남군 해남읍 복평리 산 36", "uri": "http://jiamdiary.info/iri/jad#L126"}, {"id": "L128", "class_field": "Place", "name": "숭례문(崇禮門)", "korname": "숭례문", "chinname": "崇禮門", "alias": "南大門", "kind": "건축물", "shape": "dot", "latitude": "37.559927", "longitude": "126.975358", "address": "서울 중구 세종대로 40", "uri": "http://jiamdiary.info/iri/jad#L128"}, {"id": "L129", "class_field": "Place", "name": "남도(南桃)", "korname": "남도", "chinname": "南桃", "alias": null, "kind": "단위구역", "shape": "face", "latitude": "34.364122", "longitude": "126.164182", "address": "전남 진도군 임회면 남동리 226", "uri": "http://jiamdiary.info/iri/jad#L129"}, {"id": "L131", "class_field": "Place", "name": "남리촌(南利村)", "korname": "남리촌", "chinname": "南利村", "alias": null, "kind": "단위구역", "shape": "face", "latitude": "34.572503", "longitude": "126.427604", "address": "전남 해남군 황산면 남리리 269", "uri": "http://jiamdiary.info/iri/jad#L131"}, {"id": "L132", "class_field": "Place", "name": "남벌은(南伐隱)", "korname": "남벌은", "chinname": "南伐隱", "alias": "南發元,南伐院", "kind": "단위구역", "shape": "face", "latitude": "37.223705", "longitude": "127.284263", "address": "경기 용인시 처인구 양지면 남곡로105번길 40", "uri": "http://jiamdiary.info/iri/jad#L132"}, {"id": "L133", "class_field": "Place", "name": "남소동(南小洞)", "korname": "남소동", "chinname": "南小洞", "alias": null, "kind": "단위구역", "shape": "face", "latitude": "37.558574", "longitude": "126.999741", "address": "서울 중구 장충동2가 192-5", "uri": "http://jiamdiary.info/iri/jad#L133"}, {"id": "L134", "class_field": "Place", "name": "남양(南陽)", "korname": "남양", "chinname": "南陽", "alias": null, "kind": "단위구역", "shape": "face", "latitude": "37.209538", "longitude": "126.815362", "address": "경기 화성시 남양읍 남양리 651-1", "uri": "http://jiamdiary.info/iri/jad#L134"}, {"id": "L136", "class_field": "Place", "name": "남원(南原)", "korname": "남원", "chinname": "南原", "alias": null, "kind": "단위구역", "shape": "face", "latitude": "35.413691", "longitude": "127.377083", "address": "전북 남원시 의총로 142-17", "uri": "http://jiamdiary.info/iri/jad#L136"}, {"id": "L137", "class_field": "Place", "name": "남평(南平)", "korname": "남평", "chinname": "南平", "alias": null, "kind": "단위구역", "shape": "face", "latitude": "35.042429", "longitude": "126.845194", "address": "전남 나주시 남평읍 남평3로 14-13", "uri": "http://jiamdiary.info/iri/jad#L137"}, {"id": "L140", "class_field": "Place", "name": "남한산성(南漢山城)", "korname": "남한산성", "chinname": "南漢山城", "alias": null, "kind": "단위구역", "shape": "face", "latitude": "37.478947", "longitude": "127.181542", "address": "경기 광주시 남한산성면 남한산성로 784-29", "uri": "http://jiamdiary.info/iri/jad#L140"}, {"id": "L141", "class_field": "Place", "name": "남해(南海)", "korname": "남해", "chinname": "南海", "alias": null, "kind": "단위구역", "shape": "face", "latitude": "34.837666", "longitude": "127.892637", "address": "경남 남해군 남해읍 망운로9번길 12", "uri": "http://jiamdiary.info/iri/jad#L141"}, {"id": "L143", "class_field": "Place", "name": "낙안 내동(樂安內洞)", "korname": "낙안 내동", "chinname": "樂安內洞", "alias": "樂安內谷", "kind": "단위구역", "shape": "face", "latitude": "34.895875", "longitude": "127.357433", "address": "전남 순천시 낙안면 내동2길 41-1", "uri": "http://jiamdiary.info/iri/jad#L143"}, {"id": "L145", "class_field": "Place", "name": "내운암(內雲庵)", "korname": "내운암", "chinname": "內雲庵", "alias": null, "kind": "건축물", "shape": "dot", "latitude": "34.738433", "longitude": "126.687169", "address": "전남 강진군 성전면 무위사로 308", "uri": "http://jiamdiary.info/iri/jad#L145"}, {"id": "L146", "class_field": "Place", "name": "내장사(內藏寺)", "korname": "내장사", "chinname": "內藏寺", "alias": null, "kind": "건축물", "shape": "dot", "latitude": "35.489611", "longitude": "126.902041", "address": "전북 정읍시 내장산로 1253", "uri": "http://jiamdiary.info/iri/jad#L146"}, {"id": "L148", "class_field": "Place", "name": "노령(蘆嶺)", "korname": "노령", "chinname": "蘆嶺", "alias": null, "kind": "도로", "shape": "line", "latitude": "35.467968", "longitude": "126.799571", "address": "전남 장성군 북이면 원덕리 산 44", "uri": "http://jiamdiary.info/iri/jad#L148"}, {"id": "L149", "class_field": "Place", "name": "노아도(露兒島)", "korname": "노아도", "chinname": "露兒島", "alias": "蘆花島", "kind": "도서", "shape": "face", "latitude": "34.204482", "longitude": "126.586255", "address": "전남 완도군 노화읍 구석리 산 228-3", "uri": "http://jiamdiary.info/iri/jad#L149"}, {"id": "L150", "class_field": "Place", "name": "노원(蘆原)", "korname": "노원", "chinname": "蘆原", "alias": null, "kind": "단위구역", "shape": "face", "latitude": "37.654379", "longitude": "127.056435", "address": "서울 노원구 노해로 437", "uri": "http://jiamdiary.info/iri/jad#L150"}, {"id": "L151", "class_field": "Place", "name": "노호(露湖)", "korname": "노호", "chinname": "露湖", "alias": "露梁", "kind": "단위구역", "shape": "face", "latitude": "37.512332", "longitude": "126.939409", "address": "서울 동작구 장승배기로 161", "uri": "http://jiamdiary.info/iri/jad#L151"}, {"id": "L152", "class_field": "Place", "name": "노하리(路下里)", "korname": "노하리", "chinname": "路下里", "alias": null, "kind": "단위구역", "shape": "face", "latitude": "34.491863", "longitude": "126.505671", "address": "전남 해남군 화산면 월호길 9-14", "uri": "http://jiamdiary.info/iri/jad#L152"}, {"id": "L153", "class_field": "Place", "name": "녹산면(_山面)", "korname": "녹산면", "chinname": "_山面", "alias": null, "kind": "단위구역", "shape": "face", "latitude": "34.521151", "longitude": "126.609754", "address": "전남 해남군 삼산면 신기큰길 7", "uri": "http://jiamdiary.info/iri/jad#L153"}, {"id": "L154", "class_field": "Place", "name": "녹산역(_山驛)", "korname": "녹산역", "chinname": "_山驛", "alias": null, "kind": "건축물", "shape": "dot", "latitude": "34.562157", "longitude": "126.616271", "address": "전남 해남군 해남읍 신안리 138-1", "uri": "http://jiamdiary.info/iri/jad#L154"}, {"id": "L155", "class_field": "Place", "name": "논정(論亭)", "korname": "논정", "chinname": "論亭", "alias": null, "kind": "단위구역", "shape": "face", "latitude": "34.499106", "longitude": "126.746823", "address": "전남 강진군 신전면 벌정리 144-2", "uri": "http://jiamdiary.info/iri/jad#L155"}, {"id": "L157", "class_field": "Place", "name": "농어바위(_魚岩)", "korname": "농어바위", "chinname": "_魚岩", "alias": null, "kind": "산야", "shape": "dot", "latitude": "34.555076", "longitude": "126.768001", "address": "전남 강진군 도암면 해안관광로 1325", "uri": "http://jiamdiary.info/iri/jad#L157"}, {"id": "L158", "class_field": "Place", "name": "누리치(屢利峙)", "korname": "누리치", "chinname": "屢利峙", "alias": "黃峙,누릿재", "kind": "도로", "shape": "line", "latitude": "34.764737", "longitude": "126.727396", "address": "전남 영암군 영암읍 개신리 산 135", "uri": "http://jiamdiary.info/iri/jad#L158"}, {"id": "L159", "class_field": "Place", "name": "누리재(婁里峙)", "korname": "누리재", "chinname": "婁里峙", "alias": null, "kind": "도로", "shape": "line", "latitude": "35.115701", "longitude": "127.838366", "address": "경남 하동군 횡천면 애치리 160", "uri": "http://jiamdiary.info/iri/jad#L159"}, {"id": "L160", "class_field": "Place", "name": "능주(綾州)", "korname": "능주", "chinname": "綾州", "alias": null, "kind": "단위구역", "shape": "face", "latitude": "34.989811", "longitude": "126.957957", "address": "전남 화순군 능주면 죽수길 73", "uri": "http://jiamdiary.info/iri/jad#L160"}, {"id": "L161", "class_field": "Place", "name": "니산(尼山)", "korname": "니산", "chinname": "尼山", "alias": null, "kind": "단위구역", "shape": "face", "latitude": "36.278119", "longitude": "127.130281", "address": "충남 논산시 노성면 노성로585번길 12-8", "uri": "http://jiamdiary.info/iri/jad#L161"}, {"id": "L162", "class_field": "Place", "name": "다경(多慶)", "korname": "다경", "chinname": "多慶", "alias": null, "kind": "단위구역", "shape": "face", "latitude": "34.935788", "longitude": "126.315314", "address": "전남 무안군 운남면 원성내길 109-4", "uri": "http://jiamdiary.info/iri/jad#L162"}, {"id": "L163", "class_field": "Place", "name": "다기소(多岐所)", "korname": "다기소", "chinname": "多岐所", "alias": null, "kind": "단위구역", "shape": "face", "latitude": "34.447594", "longitude": "126.490879", "address": "전남 해남군 화산면 대지큰길 59", "uri": "http://jiamdiary.info/iri/jad#L163"}, {"id": "L165", "class_field": "Place", "name": "다로악지(多路樂只)", "korname": "다로악지", "chinname": "多路樂只", "alias": null, "kind": "단위구역", "shape": "face", "latitude": "37.500428", "longitude": "127.478632", "address": "경기 양평군 양평읍 양근로 33", "uri": "http://jiamdiary.info/iri/jad#L165"}, {"id": "L167", "class_field": "Place", "name": "다사치(多沙峙)", "korname": "다사치", "chinname": "多沙峙", "alias": null, "kind": "도로", "shape": "line", "latitude": "34.851769", "longitude": "127.280648", "address": "전남 보성군 벌교읍 징광리 산 187-1", "uri": "http://jiamdiary.info/iri/jad#L167"}, {"id": "L168", "class_field": "Place", "name": "다산(茶山)", "korname": "다산", "chinname": "茶山", "alias": null, "kind": "단위구역", "shape": "face", "latitude": "34.597061", "longitude": "126.646742", "address": "전남 해남군 옥천면 다산길 106", "uri": "http://jiamdiary.info/iri/jad#L168"}, {"id": "L169", "class_field": "Place", "name": "주교(舟橋)", "korname": "주교", "chinname": "舟橋", "alias": null, "kind": "건축물", "shape": "dot", "latitude": "37.548253", "longitude": "126.970071", "address": "서울 용산구 청파로 319", "uri": "http://jiamdiary.info/iri/jad#L169"}, {"id": "L170", "class_field": "Place", "name": "단수리(丹樹里)", "korname": "단수리", "chinname": "丹樹里", "alias": null, "kind": "단위구역", "shape": "face", "latitude": "37.271521", "longitude": "127.680843", "address": "경기 여주시 단현길 14", "uri": "http://jiamdiary.info/iri/jad#L170"}, {"id": "L171", "class_field": "Place", "name": "단암역(丹巖驛)", "korname": "단암역", "chinname": "丹巖驛", "alias": "靑巖驛", "kind": "건축물", "shape": "dot", "latitude": "35.355595", "longitude": "126.817752", "address": "전남 장성군 장성읍 용강리 171-1", "uri": "http://jiamdiary.info/iri/jad#L171"}, {"id": "L172", "class_field": "Place", "name": "달마산(達摩山)", "korname": "달마산", "chinname": "達摩山", "alias": null, "kind": "산야", "shape": "face", "latitude": "34.382727", "longitude": "126.585122", "address": "전남 해남군 송지면 서정리 산 303-2", "uri": "http://jiamdiary.info/iri/jad#L172"}, {"id": "L173", "class_field": "Place", "name": "담양(潭陽)", "korname": "담양", "chinname": "潭陽", "alias": null, "kind": "단위구역", "shape": "face", "latitude": "35.320413", "longitude": "126.981832", "address": "전남 담양군 담양읍 중앙로 83", "uri": "http://jiamdiary.info/iri/jad#L173"}, {"id": "L174", "class_field": "Place", "name": "답답고개(沓沓古介)", "korname": "답답고개", "chinname": "沓沓古介", "alias": null, "kind": "도로", "shape": "line", "latitude": "34.854489", "longitude": "128.546864", "address": "경남 거제시 거제면 내간리 산 44-1", "uri": "http://jiamdiary.info/iri/jad#L174"}, {"id": "L175", "class_field": "Place", "name": "당당곶(唐唐串)", "korname": "당당곶", "chinname": "唐唐串", "alias": "당당구지", "kind": "단위구역", "shape": "face", "latitude": "35.091714", "longitude": "126.332903", "address": "전남 무안군 해제면 현해로 1230-23", "uri": "http://jiamdiary.info/iri/jad#L175"}, {"id": "L176", "class_field": "Place", "name": "당동(唐洞)", "korname": "당동", "chinname": "唐洞", "alias": "땅골", "kind": "단위구역", "shape": "face", "latitude": "34.577327", "longitude": "126.836238", "address": "전남 강진군 칠량면 삼흥리 766", "uri": "http://jiamdiary.info/iri/jad#L176"}, {"id": "L178", "class_field": "Place", "name": "당산(堂山)", "korname": "당산", "chinname": "堂山", "alias": null, "kind": "단위구역", "shape": "face", "latitude": "34.677491", "longitude": "126.672643", "address": "전남 해남군 계곡면 당산리 355-1", "uri": "http://jiamdiary.info/iri/jad#L178"}, {"id": "L179", "class_field": "Place", "name": "당포리(唐浦里)", "korname": "당포리", "chinname": "唐浦里", "alias": null, "kind": "단위구역", "shape": "face", "latitude": "34.731633", "longitude": "126.297311", "address": "전남 해남군 화원면 당포길 20", "uri": "http://jiamdiary.info/iri/jad#L179"}, {"id": "L180", "class_field": "Place", "name": "대구(大丘)", "korname": "대구", "chinname": "大丘", "alias": null, "kind": "단위구역", "shape": "face", "latitude": "34.495415", "longitude": "126.800806", "address": "전남 강진군 대구면 수동길 18", "uri": "http://jiamdiary.info/iri/jad#L180"}, {"id": "L181", "class_field": "Place", "name": "대둔동(大芚洞)", "korname": "대둔동", "chinname": "大芚洞", "alias": "長春洞", "kind": "단위구역", "shape": "face", "latitude": "34.477252", "longitude": "126.613664", "address": "전남 해남군 삼산면 구림리 산 18-3", "uri": "http://jiamdiary.info/iri/jad#L181"}, {"id": "L182", "class_field": "Place", "name": "대둔사(大芚寺)", "korname": "대둔사", "chinname": "大芚寺", "alias": "대흥사", "kind": "건축물", "shape": "dot", "latitude": "34.477251", "longitude": "126.616631", "address": "전남 해남군 삼산면 대흥사길 400", "uri": "http://jiamdiary.info/iri/jad#L182"}, {"id": "L183", "class_field": "Place", "name": "대둔사 남암(大芚寺南庵)", "korname": "대둔사 남암", "chinname": "大芚寺南庵", "alias": null, "kind": "건축물", "shape": "dot", "latitude": "34.470667", "longitude": "126.615759", "address": "전남 해남군 삼산면 구림리 산 14", "uri": "http://jiamdiary.info/iri/jad#L183"}, {"id": "L184", "class_field": "Place", "name": "대둔사 청운당(大芚寺淸雲堂)", "korname": "대둔사 청운당", "chinname": "大芚寺淸雲堂", "alias": null, "kind": "건축물", "shape": "dot", "latitude": "34.477132", "longitude": "126.617423", "address": "전남 해남군 삼산면 대흥사길 400 청운당", "uri": "http://jiamdiary.info/iri/jad#L184"}, {"id": "L185", "class_field": "Place", "name": "대둔산(大芚山)", "korname": "대둔산", "chinname": "大芚山", "alias": "大芚山 岐峯", "kind": "산야", "shape": "face", "latitude": "34.455274", "longitude": "126.620306", "address": "전남 해남군 현산면 황산리 산 1-16", "uri": "http://jiamdiary.info/iri/jad#L185"}, {"id": "L186", "class_field": "Place", "name": "대박산(大朴山)", "korname": "대박산", "chinname": "大朴山", "alias": null, "kind": "산야", "shape": "face", "latitude": "34.935985", "longitude": "126.331882", "address": "전남 무안군 운남면 성내리 산 76-7", "uri": "http://jiamdiary.info/iri/jad#L186"}, {"id": "L188", "class_field": "Place", "name": "대산(大山)", "korname": "대산", "chinname": "大山", "alias": null, "kind": "단위구역", "shape": "face", "latitude": "34.546972", "longitude": "126.672274", "address": "전남 해남군 옥천면 대산길 70", "uri": "http://jiamdiary.info/iri/jad#L188"}, {"id": "L189", "class_field": "Place", "name": "대석문(大石門)", "korname": "대석문", "chinname": "大石門", "alias": null, "kind": "산야", "shape": "dot", "latitude": "34.562451", "longitude": "126.721513", "address": "전남 강진군 도암면 석문리 산 80-4", "uri": "http://jiamdiary.info/iri/jad#L189"}, {"id": "L190", "class_field": "Place", "name": "대소리(大所里)", "korname": "대소리", "chinname": "大所里", "alias": null, "kind": "단위구역", "shape": "face", "latitude": "34.447931", "longitude": "126.485384", "address": "전남 해남군 화산면 대지길 4", "uri": "http://jiamdiary.info/iri/jad#L190"}, {"id": "L191", "class_field": "Place", "name": "대정(大靜)", "korname": "대정", "chinname": "大靜", "alias": null, "kind": "단위구역", "shape": "face", "latitude": "33.249348", "longitude": "126.275941", "address": "제주특별자치도 서귀포시 대정읍 추사로55번길 6-1", "uri": "http://jiamdiary.info/iri/jad#L191"}, {"id": "L192", "class_field": "Place", "name": "대치(大峙)", "korname": "대치", "chinname": "大峙", "alias": null, "kind": "도로", "shape": "line", "latitude": "34.604828", "longitude": "126.707882", "address": "전남 강진군 도암면 덕년리 산 90", "uri": "http://jiamdiary.info/iri/jad#L192"}, {"id": "L193", "class_field": "Place", "name": "한티(大峙)", "korname": "한티", "chinname": "大峙", "alias": null, "kind": "도로", "shape": "line", "latitude": "34.922667", "longitude": "128.370859", "address": "경남 통영시 도산면 도선리 산 7", "uri": "http://jiamdiary.info/iri/jad#L193"}, {"id": "L195", "class_field": "Place", "name": "대평(大坪)", "korname": "대평", "chinname": "大坪", "alias": null, "kind": "단위구역", "shape": "face", "latitude": "34.516716", "longitude": "126.617116", "address": "전남 해남군 삼산면 신활길 23", "uri": "http://jiamdiary.info/iri/jad#L195"}, {"id": "L196", "class_field": "Place", "name": "대항동(大巷洞)", "korname": "대항동", "chinname": "大巷洞", "alias": null, "kind": "단위구역", "shape": "face", "latitude": "34.536924", "longitude": "126.595847", "address": "전남 해남군 삼산면 금산큰길 33", "uri": "http://jiamdiary.info/iri/jad#L196"}, {"id": "L197", "class_field": "Place", "name": "대항봉(大巷峰)", "korname": "대항봉", "chinname": "大巷峰", "alias": "大巷山", "kind": "산야", "shape": "face", "latitude": "34.531993", "longitude": "126.552838", "address": "전남 해남군 삼산면 봉학리 산 33-31", "uri": "http://jiamdiary.info/iri/jad#L197"}, {"id": "L199", "class_field": "Place", "name": "덕음암(德音巖)", "korname": "덕음암", "chinname": "德音巖", "alias": null, "kind": "건축물", "shape": "dot", "latitude": "34.555222", "longitude": "126.630489", "address": "전남 해남군 옥천면 송산리 산 25-1", "uri": "http://jiamdiary.info/iri/jad#L199"}, {"id": "L200", "class_field": "Place", "name": "덕정동(德井洞)", "korname": "덕정동", "chinname": "德井洞", "alias": null, "kind": "단위구역", "shape": "face", "latitude": "34.588365", "longitude": "126.679434", "address": "전남 강진군 도암면 강성길 77", "uri": "http://jiamdiary.info/iri/jad#L200"}, {"id": "L201", "class_field": "Place", "name": "덕정리(德井里)", "korname": "덕정리", "chinname": "德井里", "alias": null, "kind": "단위구역", "shape": "face", "latitude": "34.639048", "longitude": "126.620133", "address": "전남 해남군 계곡면 덕정길 14", "uri": "http://jiamdiary.info/iri/jad#L201"}, {"id": "L202", "class_field": "Place", "name": "덕진리(德津里)", "korname": "덕진리", "chinname": "德津里", "alias": "德津橋", "kind": "단위구역", "shape": "face", "latitude": "34.819155", "longitude": "126.696928", "address": "전남 영암군 덕진면 예향로 1731", "uri": "http://jiamdiary.info/iri/jad#L202"}, {"id": "L204", "class_field": "Place", "name": "덕평(德坪)", "korname": "덕평", "chinname": "德坪", "alias": "덕평점", "kind": "단위구역", "shape": "face", "latitude": "36.686395", "longitude": "127.156679", "address": "충남 천안시 동남구 광덕면 광덕로 534", "uri": "http://jiamdiary.info/iri/jad#L204"}, {"id": "L205", "class_field": "Place", "name": "덕포(德浦)", "korname": "덕포", "chinname": "德浦", "alias": null, "kind": "단위구역", "shape": "face", "latitude": "34.763436", "longitude": "126.391301", "address": "전남 영암군 삼호읍 공항로 23", "uri": "http://jiamdiary.info/iri/jad#L205"}, {"id": "L206", "class_field": "Place", "name": "도갑사(道岬寺)", "korname": "도갑사", "chinname": "道岬寺", "alias": null, "kind": "건축물", "shape": "dot", "latitude": "34.752873", "longitude": "126.662884", "address": "전남 영암군 군서면 도갑사로 306", "uri": "http://jiamdiary.info/iri/jad#L206"}, {"id": "L207", "class_field": "Place", "name": "도봉서원(道峰書院)", "korname": "도봉서원", "chinname": "道峰書院", "alias": null, "kind": "건축물", "shape": "dot", "latitude": "37.688133", "longitude": "127.029119", "address": "서울 도봉구 도봉산길 90", "uri": "http://jiamdiary.info/iri/jad#L207"}, {"id": "L209", "class_field": "Place", "name": "도장산(道藏山)", "korname": "도장산", "chinname": "道藏山", "alias": null, "kind": "산야", "shape": "face", "latitude": "34.608544", "longitude": "126.380719", "address": "전남 해남군 황산면 관춘리 산 43", "uri": "http://jiamdiary.info/iri/jad#L209"}, {"id": "L210", "class_field": "Place", "name": "도장사(道藏寺)", "korname": "도장사", "chinname": "道藏寺", "alias": null, "kind": "건축물", "shape": "dot", "latitude": "34.610211", "longitude": "126.383734", "address": "전남 해남군 황산면 내산길 143", "uri": "http://jiamdiary.info/iri/jad#L210"}, {"id": "L213", "class_field": "Place", "name": "독평(禿坪)", "korname": "독평", "chinname": "禿坪", "alias": "禿音", "kind": "단위구역", "shape": "face", "latitude": "34.644737", "longitude": "126.447938", "address": "전남 해남군 산이면 비석길 102", "uri": "http://jiamdiary.info/iri/jad#L213"}, {"id": "L215", "class_field": "Place", "name": "동래부(東萊府)", "korname": "동래부", "chinname": "東萊府", "alias": null, "kind": "단위구역", "shape": "face", "latitude": "35.203255", "longitude": "129.086379", "address": "부산 동래구 명륜로112번길 61", "uri": "http://jiamdiary.info/iri/jad#L215"}, {"id": "L216", "class_field": "Place", "name": "동복(同福)", "korname": "동복", "chinname": "同福", "alias": null, "kind": "단위구역", "shape": "face", "latitude": "35.072086", "longitude": "127.128226", "address": "전남 화순군 동복면 오지호로 300", "uri": "http://jiamdiary.info/iri/jad#L216"}, {"id": "L218", "class_field": "Place", "name": "동쌍동(東雙洞)", "korname": "동쌍동", "chinname": "東雙洞", "alias": "東西岩", "kind": "단위구역", "shape": "face", "latitude": "36.271074", "longitude": "127.256548", "address": "충남 계룡시 서금암로 51-9", "uri": "http://jiamdiary.info/iri/jad#L218"}, {"id": "L219", "class_field": "Place", "name": "동작진(銅雀津)", "korname": "동작진", "chinname": "銅雀津", "alias": null, "kind": "단위구역", "shape": "face", "latitude": "37.505917", "longitude": "126.980241", "address": "서울 동작구 동작대로 335", "uri": "http://jiamdiary.info/iri/jad#L219"}, {"id": "L221", "class_field": "Place", "name": "두모동(頭毛洞)", "korname": "두모동", "chinname": "頭毛洞", "alias": null, "kind": "단위구역", "shape": "face", "latitude": "34.518388", "longitude": "126.527721", "address": "전남 해남군 화산면 해창리 630-1", "uri": "http://jiamdiary.info/iri/jad#L221"}, {"id": "L222", "class_field": "Place", "name": "두모포(斗毛浦)", "korname": "두모포", "chinname": "斗毛浦", "alias": null, "kind": "단위구역", "shape": "face", "latitude": "34.427142", "longitude": "126.512729", "address": "전남 해남군 현산면 두모길 40", "uri": "http://jiamdiary.info/iri/jad#L222"}, {"id": "L223", "class_field": "Place", "name": "두미(豆尾)", "korname": "두미", "chinname": "豆尾", "alias": "두물머리", "kind": "단위구역", "shape": "face", "latitude": "37.535257", "longitude": "127.316813", "address": "경기 양평군 양서면 두물머리길 103-3", "uri": "http://jiamdiary.info/iri/jad#L223"}, {"id": "L224", "class_field": "Place", "name": "두미치(斗尾峙)", "korname": "두미치", "chinname": "斗尾峙", "alias": null, "kind": "도로", "shape": "line", "latitude": "34.738668", "longitude": "127.01466", "address": "전남 보성군 보성읍 대야리 산 101-1", "uri": "http://jiamdiary.info/iri/jad#L224"}, {"id": "L226", "class_field": "Place", "name": "마고동(麻姑洞)", "korname": "마고동", "chinname": "麻姑洞", "alias": "麻姑里,馬廐洞", "kind": "단위구역", "shape": "face", "latitude": "34.560925", "longitude": "126.64622", "address": "전남 해남군 옥천면 마고리길 32-1", "uri": "http://jiamdiary.info/iri/jad#L226"}, {"id": "L228", "class_field": "Place", "name": "마늘산(蒜山)", "korname": "마늘산", "chinname": "蒜山", "alias": "말뫼봉", "kind": "산야", "shape": "face", "latitude": "34.553073", "longitude": "126.598661", "address": "전남 해남군 해남읍 연동리 산 72", "uri": "http://jiamdiary.info/iri/jad#L228"}, {"id": "L229", "class_field": "Place", "name": "마도(馬島)", "korname": "마도", "chinname": "馬島", "alias": null, "kind": "단위구역", "shape": "face", "latitude": "34.453442", "longitude": "126.81553", "address": "전남 강진군 마량면 마량리 988-5", "uri": "http://jiamdiary.info/iri/jad#L229"}, {"id": "L234", "class_field": "Place", "name": "마전치(馬轉峙)", "korname": "마전치", "chinname": "馬轉峙", "alias": "멍에재", "kind": "도로", "shape": "line", "latitude": "34.328185", "longitude": "126.573196", "address": "전남 해남군 송지면 통호리 산 30", "uri": "http://jiamdiary.info/iri/jad#L234"}, {"id": "L235", "class_field": "Place", "name": "마치(馬峙)", "korname": "마치", "chinname": "馬峙", "alias": null, "kind": "단위구역", "shape": "face", "latitude": "34.690395", "longitude": "126.580206", "address": "전남 영암군 미암면 마봉길 72-1", "uri": "http://jiamdiary.info/iri/jad#L235"}, {"id": "L236", "class_field": "Place", "name": "마포면(馬浦面)", "korname": "마포면", "chinname": "馬浦面", "alias": null, "kind": "단위구역", "shape": "face", "latitude": "34.621663", "longitude": "126.568167", "address": "전남 해남군 마산면 마산로 445", "uri": "http://jiamdiary.info/iri/jad#L236"}, {"id": "L237", "class_field": "Place", "name": "막도(莫島)", "korname": "막도", "chinname": "莫島", "alias": "土莫島", "kind": "도서", "shape": "face", "latitude": "34.819468", "longitude": "125.955732", "address": "전남 신안군 비금면 광대리 산 2", "uri": "http://jiamdiary.info/iri/jad#L237"}, {"id": "L238", "class_field": "Place", "name": "만덕사 만경루(萬德寺萬景樓)", "korname": "만덕사 만경루", "chinname": "萬德寺萬景樓", "alias": null, "kind": "건축물", "shape": "dot", "latitude": "34.587694", "longitude": "126.747951", "address": "전남 강진군 도암면 만덕리 246", "uri": "http://jiamdiary.info/iri/jad#L238"}, {"id": "L239", "class_field": "Place", "name": "만덕사(萬德寺)", "korname": "만덕사", "chinname": "萬德寺", "alias": "白蓮寺", "kind": "건축물", "shape": "dot", "latitude": "34.587844", "longitude": "126.747941", "address": "전남 강진군 도암면 만덕리 246", "uri": "http://jiamdiary.info/iri/jad#L239"}, {"id": "L240", "class_field": "Place", "name": "만덕산(萬德山)", "korname": "만덕산", "chinname": "萬德山", "alias": null, "kind": "산야", "shape": "face", "latitude": "34.592059", "longitude": "126.745214", "address": "전남 강진군 도암면 만덕리 산 55", "uri": "http://jiamdiary.info/iri/jad#L240"}, {"id": "L242", "class_field": "Place", "name": "만수치(萬水峙)", "korname": "만수치", "chinname": "萬水峙", "alias": null, "kind": "도로", "shape": "line", "latitude": "34.725249", "longitude": "126.942361", "address": "전남 장흥군 장동면 하산리 산 1-2", "uri": "http://jiamdiary.info/iri/jad#L242"}, {"id": "L244", "class_field": "Place", "name": "망림촌(望林村)", "korname": "망림촌", "chinname": "望林村", "alias": null, "kind": "단위구역", "shape": "face", "latitude": "34.997496", "longitude": "128.220961", "address": "경남 고성군 상리면 망림리 712-7", "uri": "http://jiamdiary.info/iri/jad#L244"}, {"id": "L246", "class_field": "Place", "name": "망우리(忘憂里)", "korname": "망우리", "chinname": "忘憂里", "alias": null, "kind": "단위구역", "shape": "face", "latitude": "37.604604", "longitude": "127.105212", "address": "서울 중랑구 송림길 114", "uri": "http://jiamdiary.info/iri/jad#L246"}, {"id": "L247", "class_field": "Place", "name": "매화동(梅花洞)", "korname": "매화동", "chinname": "梅花洞", "alias": null, "kind": "단위구역", "shape": "face", "latitude": "34.517614", "longitude": "126.509534", "address": "전남 해남군 화산면 신풍길 25", "uri": "http://jiamdiary.info/iri/jad#L247"}, {"id": "L248", "class_field": "Place", "name": "맹교1(盲橋1)", "korname": "맹교1", "chinname": "盲橋1", "alias": null, "kind": "단위구역", "shape": "face", "latitude": "34.622974", "longitude": "126.544561", "address": "전남 해남군 마산면 노하리 691-2", "uri": "http://jiamdiary.info/iri/jad#L248"}, {"id": "L249", "class_field": "Place", "name": "맹교2(盲橋2)", "korname": "맹교2", "chinname": "盲橋2", "alias": null, "kind": "단위구역", "shape": "face", "latitude": "37.568582", "longitude": "126.998151", "address": "서울 중구 청계천로 184", "uri": "http://jiamdiary.info/iri/jad#L249"}, {"id": "L251", "class_field": "Place", "name": "맹진(孟津)", "korname": "맹진", "chinname": "孟津", "alias": "孟津橋,孟津村", "kind": "단위구역", "shape": "face", "latitude": "34.624739", "longitude": "126.620377", "address": "전남 해남군 마산면 맹진길 45", "uri": "http://jiamdiary.info/iri/jad#L251"}, {"id": "L254", "class_field": "Place", "name": "면천(沔川)", "korname": "면천", "chinname": "沔川", "alias": null, "kind": "단위구역", "shape": "face", "latitude": "36.816161", "longitude": "126.666519", "address": "충남 당진시 면천면 성상리 930-1", "uri": "http://jiamdiary.info/iri/jad#L254"}, {"id": "L255", "class_field": "Place", "name": "멸치(蔑峙)", "korname": "멸치", "chinname": "蔑峙", "alias": "밀재", "kind": "도로", "shape": "line", "latitude": "35.201665", "longitude": "126.577215", "address": "전남 영광군 묘량면 연암리 612-1", "uri": "http://jiamdiary.info/iri/jad#L255"}, {"id": "L256", "class_field": "Place", "name": "명고서원촌(明皐書院村)", "korname": "명고서원촌", "chinname": "明皐書院村", "alias": null, "kind": "단위구역", "shape": "face", "latitude": "37.278731", "longitude": "126.887323", "address": "경기 화성시 매송면 매송북길 25-5", "uri": "http://jiamdiary.info/iri/jad#L256"}, {"id": "L257", "class_field": "Place", "name": "명금동(鳴金洞)", "korname": "명금동", "chinname": "鳴金洞", "alias": null, "kind": "단위구역", "shape": "face", "latitude": "34.516459", "longitude": "126.522368", "address": "전남 해남군 화산면 명금길 17", "uri": "http://jiamdiary.info/iri/jad#L257"}, {"id": "L258", "class_field": "Place", "name": "명동(明洞)", "korname": "명동", "chinname": "明洞", "alias": null, "kind": "단위구역", "shape": "face", "latitude": "37.560011", "longitude": "126.985812", "address": "서울 중구 퇴계로20길 3", "uri": "http://jiamdiary.info/iri/jad#L258"}, {"id": "L260", "class_field": "Place", "name": "모라구미(毛羅仇味)", "korname": "모라구미", "chinname": "毛羅仇味", "alias": "沙口味", "kind": "단위구역", "shape": "face", "latitude": "34.325287", "longitude": "126.577701", "address": "전남 해남군 송지면 사구미길 110", "uri": "http://jiamdiary.info/iri/jad#L260"}, {"id": "L261", "class_field": "Place", "name": "모산(茅山)", "korname": "모산", "chinname": "茅山", "alias": null, "kind": "단위구역", "shape": "face", "latitude": "34.890273", "longitude": "126.703279", "address": "전남 영암군 신북면 모산구만동길 26-5", "uri": "http://jiamdiary.info/iri/jad#L261"}, {"id": "L263", "class_field": "Place", "name": "황원목관(黃原牧館)", "korname": "황원목관", "chinname": "黃原牧館", "alias": "黃原牧場", "kind": "단위구역", "shape": "face", "latitude": "34.671028", "longitude": "126.329654", "address": "전남 해남군 화원면 청용2길 7", "uri": "http://jiamdiary.info/iri/jad#L263"}, {"id": "L264", "class_field": "Place", "name": "목천(木川)", "korname": "목천", "chinname": "木川", "alias": null, "kind": "단위구역", "shape": "face", "latitude": "36.784901", "longitude": "127.234719", "address": "충남 천안시 동남구 목천읍 서리1길 41-7", "uri": "http://jiamdiary.info/iri/jad#L264"}, {"id": "L265", "class_field": "Place", "name": "목포(木浦)", "korname": "목포", "chinname": "木浦", "alias": null, "kind": "단위구역", "shape": "face", "latitude": "34.785101", "longitude": "126.384525", "address": "전남 목포시 목포진길11번길 9-9", "uri": "http://jiamdiary.info/iri/jad#L265"}, {"id": "L267", "class_field": "Place", "name": "묘당산(廟堂山)", "korname": "묘당산", "chinname": "廟堂山", "alias": null, "kind": "산야", "shape": "face", "latitude": "34.405006", "longitude": "126.856211", "address": "전남 완도군 고금면 덕동리 산 75", "uri": "http://jiamdiary.info/iri/jad#L267"}, {"id": "L268", "class_field": "Place", "name": "무극역(無極驛)", "korname": "무극역", "chinname": "無極驛", "alias": null, "kind": "건축물", "shape": "dot", "latitude": "37.114729", "longitude": "127.617018", "address": "경기 이천시 장호원읍 서동대로 8844-6", "uri": "http://jiamdiary.info/iri/jad#L268"}, {"id": "L269", "class_field": "Place", "name": "무안(務安)", "korname": "무안", "chinname": "務安", "alias": null, "kind": "단위구역", "shape": "face", "latitude": "34.990388", "longitude": "126.476352", "address": "전남 무안군 무안읍 성내1길 2", "uri": "http://jiamdiary.info/iri/jad#L269"}, {"id": "L270", "class_field": "Place", "name": "무위사(無爲寺)", "korname": "무위사", "chinname": "無爲寺", "alias": null, "kind": "건축물", "shape": "dot", "latitude": "34.738433", "longitude": "126.687169", "address": "전남 강진군 성전면 무위사로 308", "uri": "http://jiamdiary.info/iri/jad#L270"}, {"id": "L271", "class_field": "Place", "name": "무이천(武夷川)", "korname": "무이천", "chinname": "武夷川", "alias": "武夷里", "kind": "단위구역", "shape": "face", "latitude": "34.638126", "longitude": "126.659333", "address": "전남 해남군 계곡면 무이길 105", "uri": "http://jiamdiary.info/iri/jad#L271"}, {"id": "L272", "class_field": "Place", "name": "무장(茂長)", "korname": "무장", "chinname": "茂長", "alias": null, "kind": "단위구역", "shape": "face", "latitude": "35.418816", "longitude": "126.555394", "address": "전북 고창군 무장면 성내리 149-1", "uri": "http://jiamdiary.info/iri/jad#L272"}, {"id": "L273", "class_field": "Place", "name": "무주(茂朱)", "korname": "무주", "chinname": "茂朱", "alias": null, "kind": "단위구역", "shape": "face", "latitude": "36.006207", "longitude": "127.661189", "address": "전북 무주군 무주읍 주계로 100", "uri": "http://jiamdiary.info/iri/jad#L273"}, {"id": "L274", "class_field": "Place", "name": "묵동(墨洞)", "korname": "묵동", "chinname": "墨洞", "alias": null, "kind": "단위구역", "shape": "face", "latitude": "37.560702", "longitude": "127.000119", "address": "서울 중구 서애로1길 34", "uri": "http://jiamdiary.info/iri/jad#L274"}, {"id": "L275", "class_field": "Place", "name": "묵산(墨山)", "korname": "묵산", "chinname": "墨山", "alias": null, "kind": "단위구역", "shape": "face", "latitude": "34.648794", "longitude": "126.637845", "address": "전남 해남군 계곡면 대운길 69", "uri": "http://jiamdiary.info/iri/jad#L275"}, {"id": "L277", "class_field": "Place", "name": "문소동(聞簫洞)", "korname": "문소동", "chinname": "聞簫洞", "alias": null, "kind": "단위구역", "shape": "face", "latitude": "34.503325", "longitude": "126.562127", "address": "전남 해남군 현산면 구시리 산183-7", "uri": "http://jiamdiary.info/iri/jad#L277"}, {"id": "L279", "class_field": "Place", "name": "문촌(文村)", "korname": "문촌", "chinname": "文村", "alias": null, "kind": "단위구역", "shape": "face", "latitude": "34.584197", "longitude": "126.665069", "address": "전남 해남군 옥천면 문촌길 29", "uri": "http://jiamdiary.info/iri/jad#L279"}, {"id": "L280", "class_field": "Place", "name": "문치(蚊峙)", "korname": "문치", "chinname": "蚊峙", "alias": null, "kind": "도로", "shape": "line", "latitude": "35.037021", "longitude": "127.736313", "address": "전남 광양시 진월면 월길리 산 114", "uri": "http://jiamdiary.info/iri/jad#L280"}, {"id": "L282", "class_field": "Place", "name": "미음(渼陰)", "korname": "미음", "chinname": "渼陰", "alias": null, "kind": "단위구역", "shape": "face", "latitude": "37.585849", "longitude": "127.169853", "address": "경기 남양주시 수석동 369-1", "uri": "http://jiamdiary.info/iri/jad#L282"}, {"id": "L283", "class_field": "Place", "name": "미장동(美墻洞)", "korname": "미장동", "chinname": "美墻洞", "alias": null, "kind": "단위구역", "shape": "face", "latitude": "37.566491", "longitude": "126.981866", "address": "서울 중구 을지로 35", "uri": "http://jiamdiary.info/iri/jad#L283"}, {"id": "L284", "class_field": "Place", "name": "미초치(美草峙)", "korname": "미초치", "chinname": "美草峙", "alias": null, "kind": "도로", "shape": "line", "latitude": "34.497564", "longitude": "126.580823", "address": "전남 해남군 현산면 만안리 183-3", "uri": "http://jiamdiary.info/iri/jad#L284"}, {"id": "L285", "class_field": "Place", "name": "미황사(尾黃寺)", "korname": "미황사", "chinname": "尾黃寺", "alias": null, "kind": "건축물", "shape": "dot", "latitude": "34.382755", "longitude": "126.577701", "address": "전남 해남군 송지면 미황사길 164", "uri": "http://jiamdiary.info/iri/jad#L285"}, {"id": "L289", "class_field": "Place", "name": "박곡(朴谷)", "korname": "박곡", "chinname": "朴谷", "alias": null, "kind": "단위구역", "shape": "face", "latitude": "34.780199", "longitude": "127.164375", "address": "전남 보성군 득량면 송곡리 913-1", "uri": "http://jiamdiary.info/iri/jad#L289"}, {"id": "L290", "class_field": "Place", "name": "강진 박산(康津 朴山)", "korname": "강진 박산", "chinname": "康津 朴山", "alias": null, "kind": "단위구역", "shape": "face", "latitude": "34.697263", "longitude": "126.757235", "address": "전남 강진군 작천면 박산1길 37", "uri": "http://jiamdiary.info/iri/jad#L290"}, {"id": "L291", "class_field": "Place", "name": "반계(磻溪)", "korname": "반계", "chinname": "磻溪", "alias": "潘溪", "kind": "단위구역", "shape": "face", "latitude": "34.644595", "longitude": "126.636303", "address": "전남 해남군 계곡면 반계길 33", "uri": "http://jiamdiary.info/iri/jad#L291"}, {"id": "L292", "class_field": "Place", "name": "반남(潘南)", "korname": "반남", "chinname": "潘南", "alias": null, "kind": "단위구역", "shape": "face", "latitude": "34.903691", "longitude": "126.651707", "address": "전남 나주시 반남면 자미로 6", "uri": "http://jiamdiary.info/iri/jad#L292"}, {"id": "L293", "class_field": "Place", "name": "반송리(盤松里)", "korname": "반송리", "chinname": "盤松里", "alias": null, "kind": "단위구역", "shape": "face", "latitude": "34.621527", "longitude": "126.488793", "address": "전남 해남군 산이면 반송길 75", "uri": "http://jiamdiary.info/iri/jad#L293"}, {"id": "L296", "class_field": "Place", "name": "방축리(防築里)", "korname": "방축리", "chinname": "防築里", "alias": null, "kind": "단위구역", "shape": "face", "latitude": "34.488861", "longitude": "126.514413", "address": "전남 해남군 화산면 송평로 23", "uri": "http://jiamdiary.info/iri/jad#L296"}, {"id": "L297", "class_field": "Place", "name": "백도면(白道面)", "korname": "백도면", "chinname": "白道面", "alias": null, "kind": "단위구역", "shape": "face", "latitude": "34.513606", "longitude": "126.720083", "address": "전남 강진군 신전면 신전중앙길 21", "uri": "http://jiamdiary.info/iri/jad#L297"}, {"id": "L299", "class_field": "Place", "name": "도장사 백련암(道藏寺白蓮庵)", "korname": "도장사 백련암", "chinname": "道藏寺白蓮庵", "alias": null, "kind": "건축물", "shape": "dot", "latitude": "34.610211", "longitude": "126.383734", "address": "전남 해남군 황산면 내산길 143", "uri": "http://jiamdiary.info/iri/jad#L299"}, {"id": "L301", "class_field": "Place", "name": "백사정(白沙亭)", "korname": "백사정", "chinname": "白沙亭", "alias": null, "kind": "건축물", "shape": "dot", "latitude": "34.552032", "longitude": "126.618117", "address": "전남 해남군 해남읍 연동리 19-1", "uri": "http://jiamdiary.info/iri/jad#L301"}, {"id": "L302", "class_field": "Place", "name": "백석촌(白石村)", "korname": "백석촌", "chinname": "白石村", "alias": "白石浦", "kind": "단위구역", "shape": "face", "latitude": "36.892683", "longitude": "126.936573", "address": "충남 아산시 영인면 백석포길 47", "uri": "http://jiamdiary.info/iri/jad#L302"}, {"id": "L303", "class_field": "Place", "name": "백암동(白岩洞)", "korname": "백암동", "chinname": "白岩洞", "alias": null, "kind": "단위구역", "shape": "face", "latitude": "35.442271", "longitude": "126.776013", "address": "전남 장성군 북이면 백암리 301-6", "uri": "http://jiamdiary.info/iri/jad#L303"}, {"id": "L304", "class_field": "Place", "name": "백야지(白也只)", "korname": "백야지", "chinname": "白也只", "alias": null, "kind": "단위구역", "shape": "face", "latitude": "34.548276", "longitude": "126.572782", "address": "전남 해남군 해남읍 백야리 704-24", "uri": "http://jiamdiary.info/iri/jad#L304"}, {"id": "L306", "class_field": "Place", "name": "백운동(白雲洞)", "korname": "백운동", "chinname": "白雲洞", "alias": null, "kind": "단위구역", "shape": "face", "latitude": "34.741987", "longitude": "126.699784", "address": "전남 강진군 성전면 월하안운길 100-63", "uri": "http://jiamdiary.info/iri/jad#L306"}, {"id": "L307", "class_field": "Place", "name": "백치(白峙)", "korname": "백치", "chinname": "白峙", "alias": null, "kind": "도로", "shape": "line", "latitude": "34.542756", "longitude": "126.568359", "address": "전남 해남군 해남읍 백야길 36", "uri": "http://jiamdiary.info/iri/jad#L307"}, {"id": "L308", "class_field": "Place", "name": "백포(白浦)", "korname": "백포", "chinname": "白浦", "alias": null, "kind": "단위구역", "shape": "face", "latitude": "34.440641", "longitude": "126.518401", "address": "전남 해남군 현산면 백포길 122", "uri": "http://jiamdiary.info/iri/jad#L308"}, {"id": "L309", "class_field": "Place", "name": "법성(法聖)", "korname": "법성", "chinname": "法聖", "alias": null, "kind": "단위구역", "shape": "face", "latitude": "35.361996", "longitude": "126.445974", "address": "전남 영광군 법성면 진굴비길 68-1", "uri": "http://jiamdiary.info/iri/jad#L309"}, {"id": "L310", "class_field": "Place", "name": "법장(法藏)", "korname": "법장", "chinname": "法藏", "alias": null, "kind": "단위구역", "shape": "face", "latitude": "34.468604", "longitude": "126.508745", "address": "전남 해남군 화산면 송산리 1041-3", "uri": "http://jiamdiary.info/iri/jad#L310"}, {"id": "L311", "class_field": "Place", "name": "벽사역(碧沙驛)", "korname": "벽사역", "chinname": "碧沙驛", "alias": null, "kind": "건축물", "shape": "dot", "latitude": "34.687931", "longitude": "126.919944", "address": "전남 장흥군 장흥읍 원도3길 1", "uri": "http://jiamdiary.info/iri/jad#L311"}, {"id": "L312", "class_field": "Place", "name": "벽파정(碧波亭)", "korname": "벽파정", "chinname": "碧波亭", "alias": null, "kind": "건축물", "shape": "dot", "latitude": "34.538259", "longitude": "126.344788", "address": "전남 진도군 고군면 벽파길 90", "uri": "http://jiamdiary.info/iri/jad#L312"}, {"id": "L315", "class_field": "Place", "name": "별진(別珍)", "korname": "별진", "chinname": "別珍", "alias": "別珍驛", "kind": "단위구역", "shape": "face", "latitude": "34.646661", "longitude": "126.654097", "address": "전남 해남군 계곡면 성진길 40", "uri": "http://jiamdiary.info/iri/jad#L315"}, {"id": "L316", "class_field": "Place", "name": "병영(兵營)", "korname": "병영", "chinname": "兵營", "alias": null, "kind": "단위구역", "shape": "face", "latitude": "34.720045", "longitude": "126.817144", "address": "전남 강진군 병영면 병영성로 175", "uri": "http://jiamdiary.info/iri/jad#L316"}, {"id": "L318", "class_field": "Place", "name": "병치(甁峙)", "korname": "병치", "chinname": "甁峙", "alias": "壺峴", "kind": "도로", "shape": "line", "latitude": "34.573741", "longitude": "126.686141", "address": "전남 강진군 도암면 지석리 598-2", "uri": "http://jiamdiary.info/iri/jad#L318"}, {"id": "L319", "class_field": "Place", "name": "보길도 부용동(甫吉島芙蓉洞)", "korname": "보길도 부용동", "chinname": "甫吉島芙蓉洞", "alias": null, "kind": "단위구역", "shape": "face", "latitude": "34.162481", "longitude": "126.555986", "address": "전남 완도군 보길면 부황길 57", "uri": "http://jiamdiary.info/iri/jad#L319"}, {"id": "L320", "class_field": "Place", "name": "보길도(甫吉島)", "korname": "보길도", "chinname": "甫吉島", "alias": null, "kind": "도서", "shape": "face", "latitude": "34.162496", "longitude": "126.555221", "address": "전남 완도군 보길면 부황길 67", "uri": "http://jiamdiary.info/iri/jad#L320"}, {"id": "L321", "class_field": "Place", "name": "보석(洑石)", "korname": "보석", "chinname": "洑石", "alias": null, "kind": "단위구역", "shape": "face", "latitude": "34.576726", "longitude": "126.553695", "address": "전남 해남군 해남읍 복평길 2", "uri": "http://jiamdiary.info/iri/jad#L321"}, {"id": "L322", "class_field": "Place", "name": "보성(寶城)", "korname": "보성", "chinname": "寶城", "alias": null, "kind": "단위구역", "shape": "face", "latitude": "34.771431", "longitude": "127.080079", "address": "전남 보성군 보성읍 송재로 165", "uri": "http://jiamdiary.info/iri/jad#L322"}, {"id": "L323", "class_field": "Place", "name": "보암(寶岩)", "korname": "보암", "chinname": "寶岩", "alias": "寶巖", "kind": "단위구역", "shape": "face", "latitude": "34.536081", "longitude": "126.731913", "address": "전남 강진군 도암면 항촌리 산 126-1", "uri": "http://jiamdiary.info/iri/jad#L323"}, {"id": "L324", "class_field": "Place", "name": "보은(報恩)", "korname": "보은", "chinname": "報恩", "alias": null, "kind": "단위구역", "shape": "face", "latitude": "36.484497", "longitude": "127.715435", "address": "충북 보은군 보은읍 삼산로 56-14", "uri": "http://jiamdiary.info/iri/jad#L324"}, {"id": "L326", "class_field": "Place", "name": "봉계역(鳳溪驛)", "korname": "봉계역", "chinname": "鳳溪驛", "alias": null, "kind": "건축물", "shape": "dot", "latitude": "35.113611", "longitude": "127.932421", "address": "경남 사천시 곤명면 봉계리 504", "uri": "http://jiamdiary.info/iri/jad#L326"}, {"id": "L327", "class_field": "Place", "name": "봉계원(鳳溪院)", "korname": "봉계원", "chinname": "鳳溪院", "alias": null, "kind": "건축물", "shape": "dot", "latitude": "35.112869", "longitude": "127.936312", "address": "경남 사천시 곤명면 원전1길 42", "uri": "http://jiamdiary.info/iri/jad#L327"}, {"id": "L328", "class_field": "Place", "name": "봉대암(鳳臺庵)", "korname": "봉대암", "chinname": "鳳臺庵", "alias": null, "kind": "건축물", "shape": "dot", "latitude": "34.739142", "longitude": "126.287408", "address": "전남 해남군 화원면 매월리 산 106-1", "uri": "http://jiamdiary.info/iri/jad#L328"}, {"id": "L329", "class_field": "Place", "name": "봉저리(峰底里)", "korname": "봉저리", "chinname": "峰底里", "alias": null, "kind": "단위구역", "shape": "face", "latitude": "34.508441", "longitude": "126.498118", "address": "전남 해남군 화산면 봉저길 28", "uri": "http://jiamdiary.info/iri/jad#L329"}, {"id": "L330", "class_field": "Place", "name": "봉현(蜂峴)", "korname": "봉현", "chinname": "蜂峴", "alias": null, "kind": "단위구역", "shape": "face", "latitude": "34.575808", "longitude": "126.699428", "address": "전남 강진군 도암면 지석마을길 20-2", "uri": "http://jiamdiary.info/iri/jad#L330"}, {"id": "L331", "class_field": "Place", "name": "부곡(釜谷)", "korname": "부곡", "chinname": "釜谷", "alias": "가마구미", "kind": "단위구역", "shape": "face", "latitude": "34.433417", "longitude": "126.826701", "address": "전남 완도군 고금면 가교86번길 14", "uri": "http://jiamdiary.info/iri/jad#L331"}, {"id": "L333", "class_field": "Place", "name": "부소도(扶蘇島)", "korname": "부소도", "chinname": "扶蘇島", "alias": "扶疏島", "kind": "단위구역", "shape": "face", "latitude": "34.543657", "longitude": "126.513794", "address": "전남 해남군 해남읍 내사길 656", "uri": "http://jiamdiary.info/iri/jad#L333"}, {"id": "L334", "class_field": "Place", "name": "부안(扶安)", "korname": "부안", "chinname": "扶安", "alias": null, "kind": "단위구역", "shape": "face", "latitude": "35.731708", "longitude": "126.733235", "address": "전북 부안군 부안읍 당산로 91", "uri": "http://jiamdiary.info/iri/jad#L334"}, {"id": "L337", "class_field": "Place", "name": "북고개(北古介)", "korname": "북고개", "chinname": "北古介", "alias": null, "kind": "도로", "shape": "line", "latitude": "34.553829", "longitude": "126.619546", "address": "전남 해남군 해남읍 신안리 산 66-1", "uri": "http://jiamdiary.info/iri/jad#L337"}, {"id": "L339", "class_field": "Place", "name": "북송정(北松亭)", "korname": "북송정", "chinname": "北松亭", "alias": null, "kind": "건축물", "shape": "dot", "latitude": "34.763292", "longitude": "126.621896", "address": "전남 영암군 군서면 죽정서원길 13-15", "uri": "http://jiamdiary.info/iri/jad#L339"}, {"id": "L341", "class_field": "Place", "name": "도갑사 북지당(道岬寺北池堂)", "korname": "도갑사 북지당", "chinname": "道岬寺北池堂", "alias": null, "kind": "건축물", "shape": "dot", "latitude": "34.753934", "longitude": "126.663693", "address": "전남 영암군 군서면 도갑사로 306", "uri": "http://jiamdiary.info/iri/jad#L341"}, {"id": "L342", "class_field": "Place", "name": "북창(北倉)", "korname": "북창", "chinname": "北倉", "alias": null, "kind": "건축물", "shape": "dot", "latitude": "35.1907615", "longitude": "126.747564", "address": "광주 광산구 산수동 457-1", "uri": "http://jiamdiary.info/iri/jad#L342"}, {"id": "L344", "class_field": "Place", "name": "북평면(北坪面)", "korname": "북평면", "chinname": "北坪面", "alias": null, "kind": "단위구역", "shape": "face", "latitude": "34.408118", "longitude": "126.625397", "address": "전남 해남군 북평면 달량진길 8", "uri": "http://jiamdiary.info/iri/jad#L344"}, {"id": "L346", "class_field": "Place", "name": "불갑사(佛甲寺)", "korname": "불갑사", "chinname": "佛甲寺", "alias": null, "kind": "건축물", "shape": "dot", "latitude": "35.200759", "longitude": "126.549717", "address": "전남 영광군 불갑면 불갑사로 450", "uri": "http://jiamdiary.info/iri/jad#L346"}, {"id": "L347", "class_field": "Place", "name": "부소원(夫所院)", "korname": "부소원", "chinname": "夫所院", "alias": "不愁院", "kind": "건축물", "shape": "dot", "latitude": "34.881935", "longitude": "126.685344", "address": "전남 영암군 신북면 이천리 753-1", "uri": "http://jiamdiary.info/iri/jad#L347"}, {"id": "L348", "class_field": "Place", "name": "비곡면(比谷面)", "korname": "비곡면", "chinname": "比谷面", "alias": null, "kind": "단위구역", "shape": "face", "latitude": "34.671186", "longitude": "126.677449", "address": "전남 해남군 계곡면 당산리 1269-9", "uri": "http://jiamdiary.info/iri/jad#L348"}, {"id": "L350", "class_field": "Place", "name": "비산(飛山)", "korname": "비산", "chinname": "飛山", "alias": "飛岳", "kind": "단위구역", "shape": "face", "latitude": "34.531682", "longitude": "126.614548", "address": "전남 해남군 삼산면 항리길 47-52", "uri": "http://jiamdiary.info/iri/jad#L350"}, {"id": "L353", "class_field": "Place", "name": "사근천(沙斤川)", "korname": "사근천", "chinname": "沙斤川", "alias": "肆覲站", "kind": "단위구역", "shape": "face", "latitude": "37.348571", "longitude": "126.975296", "address": "경기 의왕시 고천동 296-1", "uri": "http://jiamdiary.info/iri/jad#L353"}, {"id": "L355", "class_field": "Place", "name": "사기점(沙器店)", "korname": "사기점", "chinname": "沙器店", "alias": "沙器所", "kind": "단위구역", "shape": "face", "latitude": "34.581288", "longitude": "126.590892", "address": "전남 해남군 해남읍 읍관동길 102", "uri": "http://jiamdiary.info/iri/jad#L355"}, {"id": "L363", "class_field": "Place", "name": "사천(泗川)", "korname": "사천", "chinname": "泗川", "alias": null, "kind": "단위구역", "shape": "face", "latitude": "35.082971", "longitude": "128.093095", "address": "경남 사천시 사천읍 읍내로 59", "uri": "http://jiamdiary.info/iri/jad#L363"}, {"id": "L364", "class_field": "Place", "name": "산방사(山房寺)", "korname": "산방사", "chinname": "山房寺", "alias": "山方寺", "kind": "건축물", "shape": "dot", "latitude": "34.857615", "longitude": "128.531545", "address": "경남 거제시 둔덕면 산방산길 197", "uri": "http://jiamdiary.info/iri/jad#L364"}, {"id": "L365", "class_field": "Place", "name": "산정(山亭)", "korname": "산정", "chinname": "山亭", "alias": null, "kind": "단위구역", "shape": "face", "latitude": "34.370301", "longitude": "126.520242", "address": "전남 해남군 송지면 산정리 768-4", "uri": "http://jiamdiary.info/iri/jad#L365"}, {"id": "L366", "class_field": "Place", "name": "산포이도면(山浦二道面)", "korname": "산포이도면", "chinname": "山浦二道面", "alias": null, "kind": "단위구역", "shape": "face", "latitude": "34.644737", "longitude": "126.447938", "address": "전남 해남군 산이면 비석길 102", "uri": "http://jiamdiary.info/iri/jad#L366"}, {"id": "L367", "class_field": "Place", "name": "산포일도면(山浦一道面)", "korname": "산포일도면", "chinname": "山浦一道面", "alias": null, "kind": "단위구역", "shape": "face", "latitude": "34.588028", "longitude": "126.552236", "address": "전남 해남군 마산면 상등길 40-1", "uri": "http://jiamdiary.info/iri/jad#L367"}, {"id": "L368", "class_field": "Place", "name": "삼거리원(三巨里院)", "korname": "삼거리원", "chinname": "三巨里院", "alias": null, "kind": "건축물", "shape": "dot", "latitude": "35.000133", "longitude": "128.187758", "address": "경남 고성군 상리면 척번정7길 64", "uri": "http://jiamdiary.info/iri/jad#L368"}, {"id": "L369", "class_field": "Place", "name": "삼거리촌(三巨里村)", "korname": "삼거리촌", "chinname": "三巨里村", "alias": null, "kind": "단위구역", "shape": "face", "latitude": "35.111357", "longitude": "127.938935", "address": "경남 사천시 곤명면 곤명1로 99", "uri": "http://jiamdiary.info/iri/jad#L369"}, {"id": "L370", "class_field": "Place", "name": "삼례역(參禮驛)", "korname": "삼례역", "chinname": "參禮驛", "alias": null, "kind": "건축물", "shape": "dot", "latitude": "35.915087", "longitude": "127.076074", "address": "전북 완주군 삼례읍 삼례리 1074", "uri": "http://jiamdiary.info/iri/jad#L370"}, {"id": "L372", "class_field": "Place", "name": "삼수(三水)", "korname": "삼수", "chinname": "三水", "alias": null, "kind": "단위구역", "shape": "face", "latitude": "41.170305", "longitude": "127.882985", "address": "함경남도 삼수군 삼수면(량강도 김정숙군)", "uri": "http://jiamdiary.info/iri/jad#L372"}, {"id": "L373", "class_field": "Place", "name": "삼인각(三寅閣)", "korname": "삼인각", "chinname": "三寅閣", "alias": null, "kind": "건축물", "shape": "dot", "latitude": "34.440481", "longitude": "126.518152", "address": "전남 해남군 현산면 백포길 122", "uri": "http://jiamdiary.info/iri/jad#L373"}, {"id": "L374", "class_field": "Place", "name": "삼인동(三仁洞)", "korname": "삼인동", "chinname": "三仁洞", "alias": null, "kind": "단위구역", "shape": "face", "latitude": "34.516565", "longitude": "126.710836", "address": "전남 강진군 신전면 삼인길 99", "uri": "http://jiamdiary.info/iri/jad#L374"}, {"id": "L375", "class_field": "Place", "name": "삼지원(三枝院)", "korname": "삼지원", "chinname": "三枝院", "alias": "三湖院", "kind": "건축물", "shape": "dot", "latitude": "34.562608", "longitude": "126.364394", "address": "해남군 황산면 옥동리 305-6번지", "uri": "http://jiamdiary.info/iri/jad#L375"}, {"id": "L376", "class_field": "Place", "name": "삼척(三陟)", "korname": "삼척", "chinname": "三陟", "alias": null, "kind": "단위구역", "shape": "face", "latitude": "37.441491", "longitude": "129.161471", "address": "강원 삼척시 성내동 12-1", "uri": "http://jiamdiary.info/iri/jad#L376"}, {"id": "L377", "class_field": "Place", "name": "삼촌면(三寸面)", "korname": "삼촌면", "chinname": "三寸面", "alias": null, "kind": "단위구역", "shape": "face", "latitude": "34.533089", "longitude": "126.590688", "address": "전남 해남군 삼산면 창리 578", "uri": "http://jiamdiary.info/iri/jad#L377"}, {"id": "L378", "class_field": "Place", "name": "삼치(三峙)", "korname": "삼치", "chinname": "三峙", "alias": "서잿재", "kind": "도로", "shape": "line", "latitude": "34.458344", "longitude": "126.507987", "address": "전남 해남군 화산면 송산리 248", "uri": "http://jiamdiary.info/iri/jad#L378"}, {"id": "L379", "class_field": "Place", "name": "상둔덕(上屯德)", "korname": "상둔덕", "chinname": "上屯德", "alias": null, "kind": "단위구역", "shape": "face", "latitude": "34.872191", "longitude": "128.541774", "address": "경남 거제시 둔덕면 상둔리 236-1", "uri": "http://jiamdiary.info/iri/jad#L379"}, {"id": "L380", "class_field": "Place", "name": "상록산(上_山)", "korname": "상록산", "chinname": "上_山", "alias": null, "kind": "단위구역", "shape": "face", "latitude": "34.538358", "longitude": "126.639455", "address": "전남 해남군 삼산면 상가길 44", "uri": "http://jiamdiary.info/iri/jad#L380"}, {"id": "L381", "class_field": "Place", "name": "상산(霜山)", "korname": "상산", "chinname": "霜山", "alias": null, "kind": "단위구역", "shape": "face", "latitude": "34.738163", "longitude": "126.996165", "address": "전남 장흥군 장동면 반산리 339", "uri": "http://jiamdiary.info/iri/jad#L381"}, {"id": "L383", "class_field": "Place", "name": "상주(尙州)", "korname": "상주", "chinname": "尙州", "alias": null, "kind": "단위구역", "shape": "face", "latitude": "36.416755", "longitude": "128.161817", "address": "경북 상주시 서성동 163-48", "uri": "http://jiamdiary.info/iri/jad#L383"}, {"id": "L386", "class_field": "Place", "name": "서두촌(鼠頭村)", "korname": "서두촌", "chinname": "鼠頭村", "alias": null, "kind": "단위구역", "shape": "face", "latitude": "34.647361", "longitude": "126.834961", "address": "전남 강진군 군동면 금강리 313-2", "uri": "http://jiamdiary.info/iri/jad#L386"}, {"id": "L387", "class_field": "Place", "name": "서소문(西小門)", "korname": "서소문", "chinname": "西小門", "alias": null, "kind": "건축물", "shape": "dot", "latitude": "37.562484", "longitude": "126.972189", "address": "서울 중구 서소문동 58-6", "uri": "http://jiamdiary.info/iri/jad#L387"}, {"id": "L388", "class_field": "Place", "name": "서안도(鋤安島)", "korname": "서안도", "chinname": "鋤安島", "alias": "所安島", "kind": "도서", "shape": "face", "latitude": "34.174854", "longitude": "126.650966", "address": "전남 완도군 소안면 비자2길 38-3", "uri": "http://jiamdiary.info/iri/jad#L388"}, {"id": "L390", "class_field": "Place", "name": "서울", "korname": "서울", "chinname": "", "alias": null, "kind": "단위구역", "shape": "face", "latitude": "37.572135", "longitude": "126.977808", "address": "서울 종로구 세종대로 178", "uri": "http://jiamdiary.info/iri/jad#L390"}, {"id": "L391", "class_field": "Place", "name": "서학동(西學洞)", "korname": "서학동", "chinname": "西學洞", "alias": null, "kind": "단위구역", "shape": "face", "latitude": "37.568073", "longitude": "126.976564", "address": "서울 중구 태평로1가 61", "uri": "http://jiamdiary.info/iri/jad#L391"}, {"id": "L394", "class_field": "Place", "name": "석고개촌(石古介村)", "korname": "석고개촌", "chinname": "石古介村", "alias": "石峴里", "kind": "단위구역", "shape": "face", "latitude": "34.499271", "longitude": "126.305617", "address": "전남 진도군 고군면 석현길 67-2", "uri": "http://jiamdiary.info/iri/jad#L394"}, {"id": "L395", "class_field": "Place", "name": "석교촌(石橋村)", "korname": "석교촌", "chinname": "石橋村", "alias": "石橋里", "kind": "단위구역", "shape": "face", "latitude": "34.632507", "longitude": "126.811291", "address": "전남 강진군 군동면 석교리 230-3", "uri": "http://jiamdiary.info/iri/jad#L395"}, {"id": "L396", "class_field": "Place", "name": "석문(石門)", "korname": "석문", "chinname": "石門", "alias": "石門里", "kind": "단위구역", "shape": "face", "latitude": "34.554521", "longitude": "126.725178", "address": "전남 강진군 도암면 석천길 2-1", "uri": "http://jiamdiary.info/iri/jad#L396"}, {"id": "L397", "class_field": "Place", "name": "석문천(石門川)", "korname": "석문천", "chinname": "石門川", "alias": null, "kind": "하천", "shape": "line", "latitude": "34.552282", "longitude": "126.720981", "address": "전남 강진군 도암면 석문리 1196-1", "uri": "http://jiamdiary.info/iri/jad#L397"}, {"id": "L399", "class_field": "Place", "name": "석전리(石田里)", "korname": "석전리", "chinname": "石田里", "alias": null, "kind": "단위구역", "shape": "face", "latitude": "34.485678", "longitude": "126.511745", "address": "전남 해남군 화산면 석전길 8-1", "uri": "http://jiamdiary.info/iri/jad#L399"}, {"id": "L400", "class_field": "Place", "name": "석제원(石梯院)", "korname": "석제원", "chinname": "石梯院", "alias": "石池院", "kind": "건축물", "shape": "dot", "latitude": "34.692261", "longitude": "126.708007", "address": "전남 강진군 성전면 예향로 11-6", "uri": "http://jiamdiary.info/iri/jad#L400"}, {"id": "L402", "class_field": "Place", "name": "석포(石浦)", "korname": "석포", "chinname": "石浦", "alias": null, "kind": "단위구역", "shape": "face", "latitude": "34.769601", "longitude": "126.521068", "address": "전남 영암군 학산면 석포길 50", "uri": "http://jiamdiary.info/iri/jad#L402"}, {"id": "L404", "class_field": "Place", "name": "선원산(善元山)", "korname": "선원산", "chinname": "善元山", "alias": "선은산", "kind": "산야", "shape": "face", "latitude": "34.477477", "longitude": "126.523273", "address": "전남 해남군 화산면 방축리 산 86", "uri": "http://jiamdiary.info/iri/jad#L404"}, {"id": "L405", "class_field": "Place", "name": "선창리(船倉里)", "korname": "선창리", "chinname": "船倉里", "alias": "仙昌里", "kind": "단위구역", "shape": "face", "latitude": "34.488092", "longitude": "126.490009", "address": "전남 해남군 화산면 선창길 9", "uri": "http://jiamdiary.info/iri/jad#L405"}, {"id": "L406", "class_field": "Place", "name": "섬거역(蟾渠驛)", "korname": "섬거역", "chinname": "蟾渠驛", "alias": null, "kind": "건축물", "shape": "dot", "latitude": "35.021476", "longitude": "127.714949", "address": "전남 광양시 진상면 섬거2길 6", "uri": "http://jiamdiary.info/iri/jad#L406"}, {"id": "L407", "class_field": "Place", "name": "섬진강(蟾江)", "korname": "섬진강", "chinname": "蟾江", "alias": "豆致江", "kind": "하천", "shape": "line", "latitude": "35.057346", "longitude": "127.750548", "address": "경남 하동군 하동읍 광평리 453", "uri": "http://jiamdiary.info/iri/jad#L407"}, {"id": "L408", "class_field": "Place", "name": "광평리(廣坪里)", "korname": "광평리", "chinname": "廣坪里", "alias": "섬진강 강변촌", "kind": "단위구역", "shape": "face", "latitude": "35.063179", "longitude": "127.748061", "address": "경남 하동군 하동읍 송림3길 8", "uri": "http://jiamdiary.info/iri/jad#L408"}, {"id": "L410", "class_field": "Place", "name": "성치(城峙)", "korname": "성치", "chinname": "城峙", "alias": null, "kind": "도로", "shape": "line", "latitude": "34.882447", "longitude": "128.518464", "address": "경남 거제시 사등면 오량리 산 39", "uri": "http://jiamdiary.info/iri/jad#L410"}, {"id": "L411", "class_field": "Place", "name": "성균관(成均館)", "korname": "성균관", "chinname": "成均館", "alias": null, "kind": "건축물", "shape": "dot", "latitude": "37.585794", "longitude": "126.995898", "address": "서울 종로구 성균관로 31", "uri": "http://jiamdiary.info/iri/jad#L411"}, {"id": "L412", "class_field": "Place", "name": "성균관 대성전(成均館大成殿)", "korname": "성균관 대성전", "chinname": "成均館大成殿", "alias": null, "kind": "건축물", "shape": "dot", "latitude": "37.585501", "longitude": "126.995987", "address": "서울 종로구 성균관로 25-1", "uri": "http://jiamdiary.info/iri/jad#L412"}, {"id": "L413", "class_field": "Place", "name": "성불사(成佛寺)", "korname": "성불사", "chinname": "成佛寺", "alias": null, "kind": "건축물", "shape": "dot", "latitude": "35.092722", "longitude": "127.571495", "address": "전남 광양시 봉강면 성불로 1150-183", "uri": "http://jiamdiary.info/iri/jad#L413"}, {"id": "L417", "class_field": "Place", "name": "성환(成歡)", "korname": "성환", "chinname": "成歡", "alias": "成歡驛", "kind": "단위구역", "shape": "face", "latitude": "36.918117", "longitude": "127.134401", "address": "충남 천안시 서북구 성환읍 성환13길 7", "uri": "http://jiamdiary.info/iri/jad#L417"}, {"id": "L419", "class_field": "Place", "name": "세동사(細洞寺)", "korname": "세동사", "chinname": "細洞寺", "alias": "瑞洞寺", "kind": "건축물", "shape": "dot", "latitude": "34.689352", "longitude": "126.310133", "address": "전남 해남군 화원면 절골길 244", "uri": "http://jiamdiary.info/iri/jad#L419"}, {"id": "L421", "class_field": "Place", "name": "소거현(_車峴)", "korname": "소거현", "chinname": "_車峴", "alias": null, "kind": "도로", "shape": "line", "latitude": "34.408516", "longitude": "126.553162", "address": "전남 해남군 송지면 해원리 산 49-1", "uri": "http://jiamdiary.info/iri/jad#L421"}, {"id": "L423", "class_field": "Place", "name": "소리산(疎離山)", "korname": "소리산", "chinname": "疎離山", "alias": null, "kind": "산야", "shape": "face", "latitude": "34.537158", "longitude": "126.390829", "address": "전남 해남군 황산면 부곡리 산 121", "uri": "http://jiamdiary.info/iri/jad#L423"}, {"id": "L425", "class_field": "Place", "name": "소석문(小石門)", "korname": "소석문", "chinname": "小石門", "alias": null, "kind": "산야", "shape": "face", "latitude": "34.554791", "longitude": "126.716237", "address": "전남 강진군 도암면 석문리 산 92-4", "uri": "http://jiamdiary.info/iri/jad#L425"}, {"id": "L426", "class_field": "Place", "name": "소안도(所安島)", "korname": "소안도", "chinname": "所安島", "alias": null, "kind": "도서", "shape": "face", "latitude": "34.174741", "longitude": "126.651006", "address": "전남 완도군 소안면 비자2길 38-3", "uri": "http://jiamdiary.info/iri/jad#L426"}, {"id": "L427", "class_field": "Place", "name": "우치(牛峙)", "korname": "우치", "chinname": "牛峙", "alias": null, "kind": "도로", "shape": "line", "latitude": "35.071057", "longitude": "127.767156", "address": "경남 하동군 적량면 동산리 1658-4", "uri": "http://jiamdiary.info/iri/jad#L427"}, {"id": "L429", "class_field": "Place", "name": "속계교(束溪橋)", "korname": "속계교", "chinname": "束溪橋", "alias": "松溪橋", "kind": "건축물", "shape": "dot", "latitude": "37.592501", "longitude": "127.070389", "address": "서울 중랑구 상봉동 474-26", "uri": "http://jiamdiary.info/iri/jad#L429"}, {"id": "L430", "class_field": "Place", "name": "속금진(束今津)", "korname": "속금진", "chinname": "束今津", "alias": "속금 나루", "kind": "건축물", "shape": "dot", "latitude": "34.693059", "longitude": "126.346256", "address": "전남 해남군 산이면 금호리 산 146-5", "uri": "http://jiamdiary.info/iri/jad#L430"}, {"id": "L431", "class_field": "Place", "name": "속금도(束今島)", "korname": "속금도", "chinname": "束今島", "alias": null, "kind": "도서", "shape": "face", "latitude": "34.691206", "longitude": "126.364133", "address": "전남 해남군 산이면 금호리 495-1", "uri": "http://jiamdiary.info/iri/jad#L431"}, {"id": "L432", "class_field": "Place", "name": "금성산2(錦城山)", "korname": "금성산2", "chinname": "錦城山", "alias": null, "kind": "산야", "shape": "face", "latitude": "34.683742", "longitude": "126.356446", "address": "전남 해남군 산이면 금호리 산 82", "uri": "http://jiamdiary.info/iri/jad#L432"}, {"id": "L435", "class_field": "Place", "name": "솔고개(松乙古介)", "korname": "솔고개", "chinname": "松乙古介", "alias": null, "kind": "도로", "shape": "line", "latitude": "34.890641", "longitude": "128.410767", "address": "경남 통영시 광도면 죽림리 산 51-18", "uri": "http://jiamdiary.info/iri/jad#L435"}, {"id": "L436", "class_field": "Place", "name": "송치(松峙)", "korname": "송치", "chinname": "松峙", "alias": "솔재", "kind": "도로", "shape": "line", "latitude": "34.963856", "longitude": "127.647925", "address": "전남 광양시 중군동 산 128-12", "uri": "http://jiamdiary.info/iri/jad#L436"}, {"id": "L439", "class_field": "Place", "name": "송산(松山)", "korname": "송산", "chinname": "松山", "alias": "松山里", "kind": "단위구역", "shape": "face", "latitude": "34.563821", "longitude": "126.651886", "address": "전남 해남군 옥천면 송산길 43-5", "uri": "http://jiamdiary.info/iri/jad#L439"}, {"id": "L440", "class_field": "Place", "name": "송정리(松亭里)", "korname": "송정리", "chinname": "松亭里", "alias": null, "kind": "단위구역", "shape": "face", "latitude": "34.412124", "longitude": "126.271693", "address": "전남 진도군 의신면 의신송정길 10", "uri": "http://jiamdiary.info/iri/jad#L440"}, {"id": "L441", "class_field": "Place", "name": "송정(松汀)", "korname": "송정", "chinname": "松汀", "alias": null, "kind": "단위구역", "shape": "face", "latitude": "34.529657", "longitude": "126.573151", "address": "전남 해남군 삼산면 송정리 205", "uri": "http://jiamdiary.info/iri/jad#L441"}, {"id": "L442", "class_field": "Place", "name": "송지면(松旨面)", "korname": "송지면", "chinname": "松旨面", "alias": null, "kind": "단위구역", "shape": "face", "latitude": "34.369482", "longitude": "126.519454", "address": "전남 해남군 송지면 산정1길 96", "uri": "http://jiamdiary.info/iri/jad#L442"}, {"id": "L443", "class_field": "Place", "name": "송천(松川)", "korname": "송천", "chinname": "松川", "alias": null, "kind": "단위구역", "shape": "face", "latitude": "34.480735", "longitude": "126.730149", "address": "전남 강진군 신전면 운주로 359-1", "uri": "http://jiamdiary.info/iri/jad#L443"}, {"id": "L445", "class_field": "Place", "name": "송호(松湖)", "korname": "송호", "chinname": "松湖", "alias": null, "kind": "단위구역", "shape": "face", "latitude": "34.572901", "longitude": "126.462601", "address": "전남 해남군 황산면 송호리 1229-3", "uri": "http://jiamdiary.info/iri/jad#L445"}, {"id": "L449", "class_field": "Place", "name": "수달치(水達峙)", "korname": "수달치", "chinname": "水達峙", "alias": "數達峙", "kind": "도로", "shape": "line", "latitude": "34.996756", "longitude": "127.707913", "address": "전남 광양시 진상면 금이리 산 102-9", "uri": "http://jiamdiary.info/iri/jad#L449"}, {"id": "L450", "class_field": "Place", "name": "수도암(修道庵)", "korname": "수도암", "chinname": "修道庵", "alias": null, "kind": "건축물", "shape": "dot", "latitude": "34.589589", "longitude": "126.746511", "address": "전남 강진군 도암면 만덕리 산 55-3", "uri": "http://jiamdiary.info/iri/jad#L450"}, {"id": "L454", "class_field": "Place", "name": "수영(水營)", "korname": "수영", "chinname": "水營", "alias": "전라우수영", "kind": "단위구역", "shape": "face", "latitude": "34.591292", "longitude": "126.308551", "address": "전남 해남군 문내면 동헌길 33-6", "uri": "http://jiamdiary.info/iri/jad#L454"}, {"id": "L455", "class_field": "Place", "name": "수원(水原府)", "korname": "수원", "chinname": "水原府", "alias": "水原府", "kind": "단위구역", "shape": "face", "latitude": "37.206036", "longitude": "127.013797", "address": "경기 화성시 화산중앙로 19", "uri": "http://jiamdiary.info/iri/jad#L455"}, {"id": "L457", "class_field": "Place", "name": "수정동(水晶洞)", "korname": "수정동", "chinname": "水晶洞", "alias": null, "kind": "단위구역", "shape": "face", "latitude": "34.508741", "longitude": "126.589218", "address": "전남 해남군 현산면 만안리 산 1", "uri": "http://jiamdiary.info/iri/jad#L457"}, {"id": "L458", "class_field": "Place", "name": "수정사(水淨寺)", "korname": "수정사", "chinname": "水淨寺", "alias": "水淸寺", "kind": "건축물", "shape": "dot", "latitude": "34.585461", "longitude": "126.857158", "address": "전남 강진군 칠량면 삼흥공원길 178-54", "uri": "http://jiamdiary.info/iri/jad#L458"}, {"id": "L461", "class_field": "Place", "name": "순창(淳昌)", "korname": "순창", "chinname": "淳昌", "alias": null, "kind": "단위구역", "shape": "face", "latitude": "35.375006", "longitude": "127.138385", "address": "전북 순창군 순창읍 순창7길 40", "uri": "http://jiamdiary.info/iri/jad#L461"}, {"id": "L462", "class_field": "Place", "name": "순천(順天)", "korname": "순천", "chinname": "順天", "alias": null, "kind": "단위구역", "shape": "face", "latitude": "34.954194", "longitude": "127.483694", "address": "전남 순천시 중앙로 95", "uri": "http://jiamdiary.info/iri/jad#L462"}, {"id": "L465", "class_field": "Place", "name": "신기(新基)", "korname": "신기", "chinname": "新基", "alias": null, "kind": "단위구역", "shape": "face", "latitude": "34.412006", "longitude": "126.623231", "address": "전남 해남군 북평면 천태산길 37", "uri": "http://jiamdiary.info/iri/jad#L465"}, {"id": "L467", "class_field": "Place", "name": "신원(新院)", "korname": "신원", "chinname": "新院", "alias": "新安驛", "kind": "단위구역", "shape": "face", "latitude": "34.9576928", "longitude": "126.704504", "address": "전남 나주시 왕곡면 신원리 440-13", "uri": "http://jiamdiary.info/iri/jad#L467"}, {"id": "L470", "class_field": "Place", "name": "신지도(新智島)", "korname": "신지도", "chinname": "新智島", "alias": "智島", "kind": "도서", "shape": "face", "latitude": "34.334941", "longitude": "126.830045", "address": "전남 완도군 신지면 대곡리 704", "uri": "http://jiamdiary.info/iri/jad#L470"}, {"id": "L471", "class_field": "Place", "name": "신지진(薪智鎭)", "korname": "신지진", "chinname": "薪智鎭", "alias": "薪智島 萬戶鎭", "kind": "단위구역", "shape": "face", "latitude": "34.340134", "longitude": "126.788042", "address": "전남 완도군 신지면 송곡리 759", "uri": "http://jiamdiary.info/iri/jad#L471"}, {"id": "L472", "class_field": "Place", "name": "신포(新浦)", "korname": "신포", "chinname": "新浦", "alias": null, "kind": "단위구역", "shape": "face", "latitude": "34.607839", "longitude": "126.631221", "address": "전남 해남군 옥천면 내동리길 11-1", "uri": "http://jiamdiary.info/iri/jad#L472"}, {"id": "L473", "class_field": "Place", "name": "심적암(深寂菴)", "korname": "심적암", "chinname": "深寂菴", "alias": null, "kind": "건축물", "shape": "dot", "latitude": "35.383494", "longitude": "127.869269", "address": "경남 산청군 산청읍 웅석봉로 495", "uri": "http://jiamdiary.info/iri/jad#L473"}, {"id": "L475", "class_field": "Place", "name": "쌍교(雙橋)", "korname": "쌍교", "chinname": "雙橋", "alias": null, "kind": "단위구역", "shape": "face", "latitude": "34.595543", "longitude": "126.660845", "address": "전남 해남군 옥천면 월평길 13", "uri": "http://jiamdiary.info/iri/jad#L475"}, {"id": "L476", "class_field": "Place", "name": "쌍리동(雙里洞)", "korname": "쌍리동", "chinname": "雙里洞", "alias": null, "kind": "단위구역", "shape": "face", "latitude": "37.563974", "longitude": "127.003255", "address": "서울 중구 동호로 330", "uri": "http://jiamdiary.info/iri/jad#L476"}, {"id": "L479", "class_field": "Place", "name": "아산(牙山)", "korname": "아산", "chinname": "牙山", "alias": null, "kind": "단위구역", "shape": "face", "latitude": "36.854219", "longitude": "126.953892", "address": "충남 아산시 영인면 여민루길 20", "uri": "http://jiamdiary.info/iri/jad#L479"}, {"id": "L480", "class_field": "Place", "name": "아산(芽山)", "korname": "아산", "chinname": "芽山", "alias": null, "kind": "산야", "shape": "face", "latitude": "34.766224", "longitude": "126.403919", "address": "전남 영암군 삼호읍 용당리 산 8-10", "uri": "http://jiamdiary.info/iri/jad#L480"}, {"id": "L481", "class_field": "Place", "name": "아촌(鵝村)", "korname": "아촌", "chinname": "鵝村", "alias": "鵝湖", "kind": "단위구역", "shape": "face", "latitude": "34.589591", "longitude": "126.661061", "address": "전남 해남군 옥천면 용산리 460-3", "uri": "http://jiamdiary.info/iri/jad#L481"}, {"id": "L482", "class_field": "Place", "name": "안동(安東)", "korname": "안동", "chinname": "安東", "alias": null, "kind": "단위구역", "shape": "face", "latitude": "36.566368", "longitude": "128.733281", "address": "경북 안동시 서동문로 193", "uri": "http://jiamdiary.info/iri/jad#L482"}, {"id": "L484", "class_field": "Place", "name": "안정동(安靜洞)", "korname": "안정동", "chinname": "安靜洞", "alias": null, "kind": "단위구역", "shape": "face", "latitude": "34.739922", "longitude": "126.696038", "address": "전남 강진군 성전면 월하안운길 100-14", "uri": "http://jiamdiary.info/iri/jad#L484"}, {"id": "L485", "class_field": "Place", "name": "안정포(安正浦)", "korname": "안정포", "chinname": "安正浦", "alias": null, "kind": "단위구역", "shape": "face", "latitude": "34.445272", "longitude": "126.503811", "address": "전남 해남군 화산면 안정길 33", "uri": "http://jiamdiary.info/iri/jad#L485"}, {"id": "L486", "class_field": "Place", "name": "안주면(安住面)", "korname": "안주면", "chinname": "安住面", "alias": null, "kind": "단위구역", "shape": "face", "latitude": "34.733601", "longitude": "126.704312", "address": "전남 강진군 성전면 월하리 1425-4", "uri": "http://jiamdiary.info/iri/jad#L486"}, {"id": "L487", "class_field": "Place", "name": "안치(_峙)", "korname": "안치", "chinname": "_峙", "alias": null, "kind": "도로", "shape": "line", "latitude": "34.774124", "longitude": "127.124537", "address": "전남 보성군 득량면 삼정리 1069", "uri": "http://jiamdiary.info/iri/jad#L487"}, {"id": "L488", "class_field": "Place", "name": "안현(鞍峴)", "korname": "안현", "chinname": "鞍峴", "alias": null, "kind": "단위구역", "shape": "face", "latitude": "37.433742", "longitude": "126.813164", "address": "경기 시흥시 안현동 101-7", "uri": "http://jiamdiary.info/iri/jad#L488"}, {"id": "L489", "class_field": "Place", "name": "안흥동(安興洞)", "korname": "안흥동", "chinname": "安興洞", "alias": "永興里", "kind": "단위구역", "shape": "face", "latitude": "34.493399", "longitude": "126.564231", "address": "전남 해남군 현산면 구시리 480", "uri": "http://jiamdiary.info/iri/jad#L489"}, {"id": "L490", "class_field": "Place", "name": "암태도(岩太島)", "korname": "암태도", "chinname": "岩太島", "alias": null, "kind": "도서", "shape": "face", "latitude": "34.827061", "longitude": "126.112331", "address": "전남 신안군 암태면 장단고길 7-53", "uri": "http://jiamdiary.info/iri/jad#L490"}, {"id": "L491", "class_field": "Place", "name": "압해도(押海島)", "korname": "압해도", "chinname": "押海島", "alias": null, "kind": "도서", "shape": "face", "latitude": "34.865475", "longitude": "126.312493", "address": "전남 신안군 압해읍 압해로 882", "uri": "http://jiamdiary.info/iri/jad#L491"}, {"id": "L495", "class_field": "Place", "name": "양근(楊根)", "korname": "양근", "chinname": "楊根", "alias": "楊江", "kind": "단위구역", "shape": "face", "latitude": "37.491656", "longitude": "127.487488", "address": "경기 양평군 양평읍 군청앞길 2", "uri": "http://jiamdiary.info/iri/jad#L495"}, {"id": "L498", "class_field": "Place", "name": "양율역(良栗驛)", "korname": "양율역", "chinname": "良栗驛", "alias": null, "kind": "건축물", "shape": "dot", "latitude": "34.918015", "longitude": "127.487501", "address": "전남 순천시 교량연동길 21-24", "uri": "http://jiamdiary.info/iri/jad#L498"}, {"id": "L499", "class_field": "Place", "name": "양주(楊州)", "korname": "양주", "chinname": "楊州", "alias": null, "kind": "단위구역", "shape": "face", "latitude": "37.785588", "longitude": "127.029592", "address": "경기 양주시 부흥로1399번길 15", "uri": "http://jiamdiary.info/iri/jad#L499"}, {"id": "L500", "class_field": "Place", "name": "양지(陽智)", "korname": "양지", "chinname": "陽智", "alias": "陽智縣", "kind": "단위구역", "shape": "face", "latitude": "37.236662", "longitude": "127.285825", "address": "경기 용인시 처인구 양지면 향교로11번길 3", "uri": "http://jiamdiary.info/iri/jad#L500"}, {"id": "L503", "class_field": "Place", "name": "양하포(襄荷浦)", "korname": "양하포", "chinname": "襄荷浦", "alias": "良下浦", "kind": "단위구역", "shape": "face", "latitude": "34.336228", "longitude": "126.600024", "address": "전남 해남군 북평면 남전길 53", "uri": "http://jiamdiary.info/iri/jad#L503"}, {"id": "L505", "class_field": "Place", "name": "어란(於蘭)", "korname": "어란", "chinname": "於蘭", "alias": null, "kind": "단위구역", "shape": "face", "latitude": "34.352003", "longitude": "126.475655", "address": "전남 해남군 송지면 어란2길 14-2", "uri": "http://jiamdiary.info/iri/jad#L505"}, {"id": "L506", "class_field": "Place", "name": "어산(語山)", "korname": "어산", "chinname": "語山", "alias": null, "kind": "단위구역", "shape": "face", "latitude": "34.621063", "longitude": "126.902383", "address": "전남 장흥군 용산면 어산운주길 30-10", "uri": "http://jiamdiary.info/iri/jad#L506"}, {"id": "L507", "class_field": "Place", "name": "어성(漁城)", "korname": "어성", "chinname": "漁城", "alias": "漁城橋,漁城浦", "kind": "단위구역", "shape": "face", "latitude": "34.525547", "longitude": "126.556734", "address": "전남 해남군 삼산면 해남화산로 467", "uri": "http://jiamdiary.info/iri/jad#L507"}, {"id": "L511", "class_field": "Place", "name": "어초은묘(漁樵隱墓)", "korname": "어초은묘", "chinname": "漁樵隱墓", "alias": null, "kind": "건축물", "shape": "dot", "latitude": "34.551968", "longitude": "126.623967", "address": "전남 해남군 해남읍 연동리 산 27-1", "uri": "http://jiamdiary.info/iri/jad#L511"}, {"id": "L512", "class_field": "Place", "name": "어평(於坪)", "korname": "어평", "chinname": "於坪", "alias": "엇들", "kind": "단위구역", "shape": "face", "latitude": "34.595311", "longitude": "126.660031", "address": "전남 해남군 옥천면 월평리 578-38", "uri": "http://jiamdiary.info/iri/jad#L512"}, {"id": "L516", "class_field": "Place", "name": "엄길(嚴吉)", "korname": "엄길", "chinname": "嚴吉", "alias": null, "kind": "단위구역", "shape": "face", "latitude": "34.756542", "longitude": "126.592778", "address": "전남 영암군 서호면 길촌길 60", "uri": "http://jiamdiary.info/iri/jad#L516"}, {"id": "L520", "class_field": "Place", "name": "여산(礪山)", "korname": "여산", "chinname": "礪山", "alias": null, "kind": "단위구역", "shape": "face", "latitude": "36.059229", "longitude": "127.085731", "address": "전북 익산시 여산면 동헌길 13", "uri": "http://jiamdiary.info/iri/jad#L520"}, {"id": "L521", "class_field": "Place", "name": "여주(驪州)", "korname": "여주", "chinname": "驪州", "alias": "呂州", "kind": "단위구역", "shape": "face", "latitude": "37.298697", "longitude": "127.635881", "address": "경기 여주시 청심로 139", "uri": "http://jiamdiary.info/iri/jad#L521"}, {"id": "L522", "class_field": "Place", "name": "역송리(驛松里)", "korname": "역송리", "chinname": "驛松里", "alias": "驛松村", "kind": "단위구역", "shape": "face", "latitude": "34.577401", "longitude": "126.792173", "address": "전남 강진군 칠량면 만복길 55", "uri": "http://jiamdiary.info/iri/jad#L522"}, {"id": "L524", "class_field": "Place", "name": "연구(燕丘)", "korname": "연구", "chinname": "燕丘", "alias": null, "kind": "단위구역", "shape": "face", "latitude": "34.642693", "longitude": "126.545682", "address": "전남 해남군 마산면 연구길 283-2", "uri": "http://jiamdiary.info/iri/jad#L524"}, {"id": "L525", "class_field": "Place", "name": "연도(燕島)", "korname": "연도", "chinname": "燕島", "alias": "燕湖里", "kind": "도서", "shape": "face", "latitude": "34.601247", "longitude": "126.483754", "address": "전남 해남군 황산면 연호길 10-8", "uri": "http://jiamdiary.info/iri/jad#L525"}, {"id": "L526", "class_field": "Place", "name": "연동(蓮洞)", "korname": "연동", "chinname": "蓮洞", "alias": "白蓮洞", "kind": "단위구역", "shape": "face", "latitude": "34.551425", "longitude": "126.622591", "address": "전남 해남군 해남읍 녹우당길 135", "uri": "http://jiamdiary.info/iri/jad#L526"}, {"id": "L527", "class_field": "Place", "name": "연동서원(蓮洞書院)", "korname": "연동서원", "chinname": "蓮洞書院", "alias": "海南書院", "kind": "건축물", "shape": "dot", "latitude": "34.551848", "longitude": "126.618908", "address": "전남 해남군 해남읍 녹우당길 123", "uri": "http://jiamdiary.info/iri/jad#L527"},